{"results": [{"name": "OUR TAMPINES HUB HAWKER CENTRE", "lat": 1.35354740485205, "long": 103.940381104547}, {"name": "HAWKER CENTRE (BLK 1 JALAN KUKOH)", "lat": 1.2882310152805, "long": 103.839934168065}, {"name": "OCBC MAXWELL HAWKER CENTRE", "lat": 1.28033142727315, "long": 103.844747227479}, {"name": "BUKIT PANJANG HAWKER CENTRE", "lat": 1.37759742308947, "long": 103.772491526747}, {"name": "MARKET & HAWKER CENTRE (BLKS 2 & 3 CHANGI VILLAGE ROAD)", "lat": 1.3891516485857, "long": 103.988245247726}, {"name": "SENJA HAWKER CENTRE", "lat": 1.38719400415283, "long": 103.761083976377}, {"name": "MARSILING MALL HAWKER CENTRE", "lat": 1.43354318137534, "long": 103.77988189197}, {"name": "MARKET STREET HAWKER CENTRE", "lat": 1.28405945173514, "long": 103.84988238435}, {"name": "MARKET & HAWKER CENTRE (BLK 6 TANJONG PAGAR PLAZA)", "lat": 1.27661464758769, "long": 103.843167023188}, {"name": "MARKET & HAWKER CENTRE (BLK 11 TELOK BLANGAH CRESCENT)", "lat": 1.27736813225761, "long": 103.818651524334}, {"name": "KUSU ISLAND HAWKER CENTRE", "lat": 1.22321808290994, "long": 103.860916792945}, {"name": "MARKET & HAWKER CENTRE (BLK 216 BEDOK NORTH STREET 1)", "lat": 1.32706274205746, "long": 103.933217970746}, {"name": "YUHUA MARKET & HAWKER CENTRE", "lat": 1.34541698312776, "long": 103.731703838354}, {"name": "YUHUA MARKET AND HAWKER CENTRE", "lat": 1.34531253284138, "long": 103.731579765339}, {"name": "MARKET & HAWKER CENTRE (BLK 409 ANG MO KIO AVE 10)", "lat": 1.36265410749321, "long": 103.855288297631}, {"name": "YISHUN PARK HAWKER CENTRE", "lat": 1.42498786287366, "long": 103.844747525064}, {"name": "PASIR RIS CENTRAL HAWKER CENTRE", "lat": 1.37347252064326, "long": 103.951571342467}, {"name": "MARKET & HAWKER CENTRE (BLK 112 JALAN BUKIT MERAH)", "lat": 1.28000480135122, "long": 103.82601329621}, {"name": "MARKET & HAWKER CENTRE (BLK 115 BUKIT MERAH VIEW)", "lat": 1.28550445567433, "long": 103.821823256087}, {"name": "MARKET & HAWKER CENTRE (BLK 117 ALJUNIED AVE 2)", "lat": 1.32064636781982, "long": 103.88702414}, {"name": "MARKET & HAWKER CENTRE (BLK 353 CLEMENTI AVE 2)", "lat": 1.31437917978956, "long": 103.770919561136}, {"name": "MARKET & HAWKER CENTRE (BLK 448 CLEMENTI AVENUE 3)", "lat": 1.31331969319644, "long": 103.764517192874}, {"name": "MARKET & HAWKER CENTRE (BLK 726 CLEMENTI WEST STREET 2)", "lat": 1.30381073184127, "long": 103.764250748436}, {"name": "MARKET & HAWKER CENTRE (BLKS 13/14 HAIG ROAD)", "lat": 1.31514204972284, "long": 103.895609544204}, {"name": "MARGARET DRIVE HAWKER CENTRE", "lat": 1.29742585102203, "long": 103.804710471304}, {"name": "MARKET & HAWKER CENTRE (BLK 16 BEDOK SOUTH ROAD )", "lat": 1.32055221938711, "long": 103.935539171613}, {"name": "MARKET & HAWKER CENTRE (BLK 16 BEDOK SOUTH ROAD)", "lat": 1.32050083785242, "long": 103.935473637292}, {"name": "MARKET & HAWKER CENTRE (BLKS 20/21 MARSILING LANE)", "lat": 1.44383165244262, "long": 103.777210383669}, {"name": "MARKET & HAWKER CENTRE (BLK 20 GHIM MOH ROAD)", "lat": 1.31099663218896, "long": 103.78823030662}, {"name": "WOODLEIGH VILLAGE HAWKER CENTRE (U/C)", "lat": 1.33977202800907, "long": 103.872096983277}, {"name": "BEDOK INTERCHANGE HAWKER CENTRE", "lat": 1.32481816551889, "long": 103.930544296289}, {"name": "HAWKER CENTRE (BLK 208B NEW UPPER CHANGI ROAD)", "lat": 1.32478236985627, "long": 103.930570304559}, {"name": "FERNVALE HAWKER CENTRE & MARKET", "lat": 1.39165412570696, "long": 103.877189699517}, {"name": "BUKIT CANBERRA HAWKER CENTRE", "lat": 1.44884901222355, "long": 103.822852017484}, {"name": "MARKET & HAWKER CENTRE (BLK 210 TOA PAYOH LORONG 8)", "lat": 1.3402610461881, "long": 103.854395758866}, {"name": "MARKET & HAWKER CENTRE (BLK 210 TOA PAYOH LORONG 8 )", "lat": 1.34025208908831, "long": 103.854333833433}, {"name": "ENVIRONMENT BUILDING HAWKER CENTRE", "lat": 1.31081071250877, "long": 103.836487736076}, {"name": "MARKET & HAWKER CENTRE (BLK 538 BEDOK NORTH STREET 3)", "lat": 1.3320672771228, "long": 103.924621314971}, {"name": "HAWKER CENTRE (BLK 75 TOA PAYOH LORONG 5)", "lat": 1.336020767662, "long": 103.852956988062}, {"name": "MARKET & HAWKER CENTRE (BLK 93 TOA PAYOH LORONG 4)", "lat": 1.33847469611073, "long": 103.849513448853}, {"name": "MARKET & HAWKER CENTRE (BLK 320 SHUNFU ROAD)", "lat": 1.35200745401591, "long": 103.837031862103}, {"name": "HAWKER CENTRE (BLKS 79/79A CIRCUIT ROAD)", "lat": 1.3265970672963, "long": 103.885052285736}, {"name": "MARKET & HAWKER CENTRE (BLK 89 CIRCUIT ROAD)", "lat": 1.32357971400582, "long": 103.885438842474}, {"name": "UOB OLD AIRPORT ROAD HAWKER CENTRE", "lat": 1.30825157753166, "long": 103.885833296725}, {"name": "MARKET & HAWKER CENTRE (BLK 4A EUNOS CRESCENT)", "lat": 1.32033126010096, "long": 103.904256478426}, {"name": "JALAN BATU HAWKER CENTRE", "lat": 1.30236034827101, "long": 103.883909473726}, {"name": "MARKET & HAWKER CENTRE (BLK 50A MARINE TERRACE)", "lat": 1.30572973591916, "long": 103.915737035334}, {"name": "MARKET & HAWKER CENTRE (BLK 58 NEW UPPER CHANGI ROAD)", "lat": 1.32420087334002, "long": 103.941125277547}, {"name": "JURONG WEST HAWKER CENTRE", "lat": 1.34126410393954, "long": 103.697241852189}, {"name": "MARKET & HAWKER CENTRE (BLK 505 JURONG WEST STREET 52)", "lat": 1.34965729130746, "long": 103.718443677825}, {"name": "CI YUAN HAWKER CENTRE", "lat": 1.37542901578859, "long": 103.882977997705}, {"name": "MARKET & HAWKER CENTRE (BLK 724 ANG MO KIO AVE 6)", "lat": 1.37217258545171, "long": 103.846510310202}, {"name": "KAMPUNG ADMIRALTY HAWKER CENTRE", "lat": 1.43991608263415, "long": 103.800701203964}]}