{"results": [{"name": "DEYI SECONDARY SCHOOL", "lat": 1.36599702567717, "long": 103.852545772422}, {"name": "NGEE ANN SECONDARY SCHOOL", "lat": 1.35447525755806, "long": 103.956747262496}, {"name": "BEATTY SECONDARY SCHOOL", "lat": 1.341790284928, "long": 103.852280842345}, {"name": "BENDEMEER SECONDARY SCHOOL", "lat": 1.32461111307996, "long": 103.860970284401}, {"name": "CEDAR GIRLS' SECONDARY SCHOOL", "lat": 1.33375800216334, "long": 103.873933064886}, {"name": "BEDOK SOUTH SECONDARY SCHOOL", "lat": 1.32513655159184, "long": 103.950989139261}, {"name": "QUEENSTOWN SECONDARY SCHOOL", "lat": 1.29352126774652, "long": 103.813190980055}, {"name": "SPECTRA SECONDARY SCHOOL", "lat": 1.43703750789961, "long": 103.804100467487}, {"name": "RAFFLES GIRLS' SCHOOL (SECONDARY)", "lat": 1.34217479932295, "long": 103.84313404727}, {"name": "SAINT HILDA'S SECONDARY SCHOOL", "lat": 1.34973922385379, "long": 103.937608032148}, {"name": "GEYLANG METHODIST SCHOOL (SECONDARY)", "lat": 1.31764900474601, "long": 103.882661129303}, {"name": "HOUGANG SECONDARY SCHOOL", "lat": 1.37764019332164, "long": 103.882533963338}, {"name": "MAYFLOWER SECONDARY SCHOOL", "lat": 1.36827266209722, "long": 103.835360726863}, {"name": "BOWEN SECONDARY SCHOOL", "lat": 1.37035994436209, "long": 103.877659577677}, {"name": "SWISS COTTAGE SECONDARY SCHOOL", "lat": 1.36471742697475, "long": 103.750396136688}, {"name": "NORTHLAND SECONDARY SCHOOL", "lat": 1.43580183362637, "long": 103.840104687784}, {"name": "RIVERSIDE SECONDARY SCHOOL", "lat": 1.44110157139127, "long": 103.78830823641}, {"name": "OUTRAM SECONDARY SCHOOL", "lat": 1.28651357464735, "long": 103.837127264403}, {"name": "CHUA CHU KANG SECONDARY SCHOOL (CAMPUS 2)", "lat": 1.38319029263484, "long": 103.751878290333}, {"name": "WOODGROVE SECONDARY SCHOOL", "lat": 1.42831828137013, "long": 103.79604758539}, {"name": "YISHUN SECONDARY SCHOOL", "lat": 1.42813324276086, "long": 103.828764316679}, {"name": "FUHUA SECONDARY SCHOOL", "lat": 1.34701408913756, "long": 103.72652089832}, {"name": "ANG MO KIO SECONDARY SCHOOL", "lat": 1.36733710171069, "long": 103.842154973672}, {"name": "BEDOK VIEW SECONDARY SCHOOL", "lat": 1.32415704029686, "long": 103.943776245024}, {"name": "YISHUN TOWN SECONDARY SCHOOL", "lat": 1.43232156717386, "long": 103.838094226361}, {"name": "GUANGYANG SECONDARY SCHOOL", "lat": 1.34440856042912, "long": 103.850208933626}, {"name": "YUSOF ISHAK SECONDARY SCHOOL", "lat": 1.40693702458178, "long": 103.896275149571}, {"name": "SERANGOON GARDEN SECONDARY SCHOOL", "lat": 1.36932570490947, "long": 103.869270301476}, {"name": "MANJUSRI SECONDARY SCHOOL", "lat": 1.32747123084846, "long": 103.901719963831}, {"name": "FUCHUN SECONDARY SCHOOL", "lat": 1.43070452883799, "long": 103.777625748539}, {"name": "JURONGVILLE SECONDARY SCHOOL", "lat": 1.35128862770284, "long": 103.728907710089}, {"name": "SAINT GABRIEL'S SECONDARY SCHOOL", "lat": 1.34648798732177, "long": 103.876094163287}, {"name": "YUYING SECONDARY SCHOOL", "lat": 1.35713595302467, "long": 103.890194755287}, {"name": "KUO CHUAN PRESBYTERIAN SECONDARY SCHOOL", "lat": 1.35017129930314, "long": 103.854983746416}, {"name": "WOODLANDS RING SECONDARY SCHOOL", "lat": 1.43648894729939, "long": 103.800148469692}, {"name": "HILLGROVE SECONDARY SCHOOL", "lat": 1.35273576615912, "long": 103.752986488399}, {"name": "ANDERSON SECONDARY SCHOOL", "lat": 1.37434001701177, "long": 103.851554107068}, {"name": "BARTLEY SECONDARY SCHOOL", "lat": 1.33995415587811, "long": 103.882806211705}, {"name": "CLEMENTI TOWN SECONDARY SCHOOL", "lat": 1.31553912945073, "long": 103.762020598524}, {"name": "BUKIT MERAH SECONDARY SCHOOL", "lat": 1.28569283064288, "long": 103.813438929393}, {"name": "ORCHID PARK SECONDARY SCHOOL", "lat": 1.41532032779634, "long": 103.837859241343}, {"name": "PEICAI SECONDARY SCHOOL", "lat": 1.35951583222214, "long": 103.870010749055}, {"name": "PEIRCE SECONDARY SCHOOL", "lat": 1.36665944653812, "long": 103.83021606804}, {"name": "SENG KANG SECONDARY SCHOOL", "lat": 1.38659683143747, "long": 103.898365036709}, {"name": "SENGKANG SECONDARY SCHOOL", "lat": 1.38652129134849, "long": 103.898365549236}, {"name": "FAIRFIELD METHODIST SCHOOL (SECONDARY)", "lat": 1.30163374395823, "long": 103.784099647149}, {"name": "NEW TOWN SECONDARY SCHOOL", "lat": 1.30977590011357, "long": 103.77318863421}, {"name": "YUAN CHING SECONDARY SCHOOL", "lat": 1.34200635764467, "long": 103.72089870437}, {"name": "NORTH VISTA SECONDARY SCHOOL", "lat": 1.381131285358, "long": 103.899188813886}, {"name": "SERANGOON SECONDARY SCHOOL", "lat": 1.37465538827443, "long": 103.902138740699}, {"name": "BOON LAY SECONDARY SCHOOL", "lat": 1.34272216334333, "long": 103.701891453912}, {"name": "EVERGREEN SECONDARY SCHOOL", "lat": 1.44149131273737, "long": 103.794137756171}, {"name": "LOYANG VIEW SECONDARY SCHOOL", "lat": 1.36658417167238, "long": 103.956944585725}, {"name": "WOODLANDS SECONDARY SCHOOL", "lat": 1.43912528141356, "long": 103.774586410437}, {"name": "JUNYUAN SECONDARY SCHOOL", "lat": 1.35361315263537, "long": 103.933886165824}, {"name": "PASIR RIS CREST SECONDARY SCHOOL", "lat": 1.37284060102246, "long": 103.959728202919}, {"name": "WESTWOOD SECONDARY SCHOOL", "lat": 1.35373698510994, "long": 103.701772102139}, {"name": "XINMIN SECONDARY SCHOOL", "lat": 1.37255884700002, "long": 103.88305161385}, {"name": "SAINT MARGARET'S SCHOOL (SECONDARY)", "lat": 1.32006821363359, "long": 103.80995114006}, {"name": "MARSILING SECONDARY SCHOOL", "lat": 1.43664424769955, "long": 103.776008090454}, {"name": "TAMPINES SECONDARY SCHOOL", "lat": 1.34926094811197, "long": 103.944263709507}, {"name": "KENT RIDGE SECONDARY SCHOOL", "lat": 1.30122773426098, "long": 103.764889617566}, {"name": "THE JAPANESE SECONDARY SCHOOL", "lat": 1.31122577207907, "long": 103.756498950631}, {"name": "TANGLIN SECONDARY SCHOOL", "lat": 1.30970169234123, "long": 103.758158358303}, {"name": "ZHONGHUA SECONDARY SCHOOL", "lat": 1.34840720846208, "long": 103.869430481414}, {"name": "TANJONG KATONG SECONDARY SCHOOL", "lat": 1.30873515955341, "long": 103.897225196199}, {"name": "QUEENSWAY SECONDARY SCHOOL", "lat": 1.30022271592188, "long": 103.802207291625}, {"name": "SAINT ANDREW'S SECONDARY SCHOOL", "lat": 1.33069360968075, "long": 103.866249138562}, {"name": "BUKIT VIEW SECONDARY SCHOOL", "lat": 1.3457330554294, "long": 103.752226593984}, {"name": "SAINT ANTHONY'S CANOSSIAN SECONDARY SCHOOL", "lat": 1.33466313498855, "long": 103.941977166932}, {"name": "CHRIST CHURCH SECONDARY SCHOOL", "lat": 1.42656780901455, "long": 103.793451105242}, {"name": "DUNEARN SECONDARY SCHOOL", "lat": 1.36357900792871, "long": 103.74472109107}, {"name": "UNITY SECONDARY SCHOOL", "lat": 1.40001524119441, "long": 103.74602091483}, {"name": "PEI HWA SECONDARY SCHOOL", "lat": 1.39037504993234, "long": 103.878461745339}, {"name": "DUNMAN SECONDARY SCHOOL", "lat": 1.36065258337022, "long": 103.956213906966}, {"name": "PASIR RIS SECONDARY SCHOOL", "lat": 1.35422732653396, "long": 103.948962626204}, {"name": "CHANGKAT CHANGI SECONDARY SCHOOL", "lat": 1.33950630072876, "long": 103.953245525564}, {"name": "CREST SECONDARY SCHOOL", "lat": 1.3431198045076, "long": 103.742628105304}, {"name": "WHITLEY SECONDARY SCHOOL", "lat": 1.35505208480649, "long": 103.842552378136}, {"name": "PAYA LEBAR METHODIST GIRLS' SCHOOL (SECONDARY)", "lat": 1.35096755912522, "long": 103.885120050588}, {"name": "BEDOK GREEN SECONDARY SCHOOL", "lat": 1.33451947288431, "long": 103.935028383346}, {"name": "SPRINGFIELD SECONDARY SCHOOL", "lat": 1.34957303471476, "long": 103.930354460693}, {"name": "EAST SPRING SECONDARY SCHOOL", "lat": 1.35622508992581, "long": 103.960640700298}, {"name": "SEMBAWANG SECONDARY SCHOOL", "lat": 1.44531502131387, "long": 103.816843258118}, {"name": "YIO CHU KANG SECONDARY SCHOOL", "lat": 1.37797597740925, "long": 103.84213696352}, {"name": "MERIDIAN SECONDARY SCHOOL", "lat": 1.3672468492013, "long": 103.948972483629}, {"name": "GREENRIDGE SECONDARY SCHOOL", "lat": 1.375600053443, "long": 103.763998914082}, {"name": "JURONG SECONDARY SCHOOL", "lat": 1.33002032220942, "long": 103.723952961648}, {"name": "ADMIRALTY SECONDARY SCHOOL", "lat": 1.44589068910993, "long": 103.802398196596}, {"name": "JUYING SECONDARY SCHOOL", "lat": 1.3387227734133, "long": 103.687310264575}, {"name": "YUHUA SECONDARY SCHOOL", "lat": 1.34718626876968, "long": 103.722687235839}, {"name": "EDGEFIELD SECONDARY SCHOOL", "lat": 1.40059309981824, "long": 103.902687385465}, {"name": "BROADRICK SECONDARY SCHOOL", "lat": 1.30705061123433, "long": 103.886917922608}, {"name": "HUA YI SECONDARY SCHOOL", "lat": 1.35234365488339, "long": 103.721832320169}, {"name": "HONG KAH SECONDARY SCHOOL", "lat": 1.35166667056342, "long": 103.727083852629}, {"name": "TEMASEK SECONDARY SCHOOL", "lat": 1.31591673150616, "long": 103.947564112022}, {"name": "PING YI SECONDARY SCHOOL", "lat": 1.3270167275387, "long": 103.920700671987}, {"name": "DAMAI SECONDARY SCHOOL", "lat": 1.33692798510393, "long": 103.927091653438}, {"name": "REGENT SECONDARY SCHOOL", "lat": 1.39327908335682, "long": 103.751034411529}, {"name": "BUKIT BATOK SECONDARY SCHOOL", "lat": 1.34849111079052, "long": 103.74087370482}, {"name": "MONTFORT SECONDARY SCHOOL", "lat": 1.37396131656912, "long": 103.888928372577}, {"name": "COMPASSVALE SECONDARY SCHOOL", "lat": 1.39614083952009, "long": 103.899847164494}, {"name": "PUNGGOL SECONDARY SCHOOL", "lat": 1.40205738421399, "long": 103.909213706482}, {"name": "GREENDALE SECONDARY SCHOOL", "lat": 1.39696019936894, "long": 103.91170014084}, {"name": "CANBERRA SECONDARY SCHOOL", "lat": 1.45319086315972, "long": 103.814203583818}, {"name": "KRANJI SECONDARY SCHOOL", "lat": 1.39005109871311, "long": 103.741190664845}, {"name": "NORTHBROOKS SECONDARY SCHOOL", "lat": 1.42081285020652, "long": 103.845147332528}, {"name": "COMMONWEALTH SECONDARY SCHOOL", "lat": 1.31920395934801, "long": 103.745637393049}, {"name": "WEST SPRING SECONDARY SCHOOL", "lat": 1.38782283303782, "long": 103.760128840155}, {"name": "JURONG WEST SECONDARY SCHOOL", "lat": 1.33525634688323, "long": 103.702098904443}, {"name": "ZHENGHUA SECONDARY SCHOOL", "lat": 1.38836583415352, "long": 103.765510638527}, {"name": "AHMAD IBRAHIM SECONDARY SCHOOL", "lat": 1.43605975368804, "long": 103.829718690077}, {"name": "NAVAL BASE SECONDARY SCHOOL", "lat": 1.41937881620441, "long": 103.831050390247}, {"name": "NANYANG GIRLS' HIGH SCHOOL", "lat": 1.33058326666479, "long": 103.802420979943}, {"name": "RIVER VALLEY HIGH SCHOOL", "lat": 1.34407801149725, "long": 103.709022156436}, {"name": "BUKIT PANJANG GOVERNMENT HIGH SCHOOL", "lat": 1.38224243360043, "long": 103.738361221869}, {"name": "CATHOLIC HIGH SCHOOL", "lat": 1.3547230747166, "long": 103.844874676599}, {"name": "NAN HUA HIGH SCHOOL", "lat": 1.30809529518605, "long": 103.768561446725}, {"name": "NUS HIGH BOARDING SCHOOL", "lat": 1.3069827098149, "long": 103.770671662772}, {"name": "NUS HIGH SCHOOL OF MATHEMATICS AND SCIENCE", "lat": 1.30656448055686, "long": 103.769365156929}, {"name": "DUNMAN HIGH SCHOOL", "lat": 1.29996216014962, "long": 103.88294155989}, {"name": "CHUNG CHENG HIGH SCHOOL (YISHUN)", "lat": 1.41922603586175, "long": 103.837390782849}, {"name": "HOLY INNOCENTS' HIGH SCHOOL", "lat": 1.37154508822261, "long": 103.896398814264}, {"name": "WASEDA SHIBUYA SENIOR HIGH SCHOOL IN SINGAPORE", "lat": 1.29639276195945, "long": 103.766619874907}, {"name": "WASEDA SHIBUYA SENIOR HIGH SCHOOL", "lat": 1.29646948308448, "long": 103.76585428544}, {"name": "NAN CHIAU HIGH SCHOOL", "lat": 1.38879582498399, "long": 103.890004423764}, {"name": "MARIS STELLA HIGH SCHOOL", "lat": 1.34139473351039, "long": 103.877852484979}, {"name": "DUNMAN HIGH SCHOOL HOSTEL", "lat": 1.29968575732487, "long": 103.882465669954}, {"name": "CHUNG CHENG HIGH SCHOOL (MAIN)", "lat": 1.30509154753048, "long": 103.891653229373}, {"name": "ANGLICAN HIGH SCHOOL", "lat": 1.33118107926966, "long": 103.941853465631}, {"name": "PRESBYTERIAN HIGH SCHOOL", "lat": 1.38201194250223, "long": 103.843149382823}]}