id,name,url,price,num_bedroom,num_bathroom,cost_psf,address,road_name,building,postal_code,latitude,longitude,floor_area,land_area,walk_destination,walk_distance_m,walk_time_mins,lease_duration,completion,type
24841299,267 Pasir Ris Street 21,https://www.propertyguru.com.sg/listing/hdb-for-sale-267-pasir-ris-street-21-24841299,868000.0,4,2,560.0,267 PASIR RIS STREET 21 SINGAPORE 510267,PASIR RIS STREET 21,,510267,1.36594168369426,103.963475911176,1550,,CR4 Pasir Ris East MRT,370.0,5.0,99,1993.0,HDB Flat
24392913,Midwood,https://www.propertyguru.com.sg/listing/for-sale-midwood-24392913,2000000.0,3,2,2020.2,10 HILLVIEW RISE MIDWOOD SINGAPORE 667972,HILLVIEW RISE,MIDWOOD,667972,1.36410574565492,103.763670992519,990,,,,,99,,Condominium
24841306,Pandan Valley,https://www.propertyguru.com.sg/listing/for-sale-pandan-valley-24841306,4000000.0,4,4,1977.26,,,,,,,2023,,EW22 Dover MRT,950.0,13.0,Freehold,1979.0,Condominium
24806331,297 Punggol Central,https://www.propertyguru.com.sg/listing/hdb-for-sale-297-punggol-central-24806331,618000.0,3,2,604.11,297 PUNGGOL CENTRAL PUNGGOL GROVE SINGAPORE 820297,PUNGGOL CENTRAL,PUNGGOL GROVE,820297,1.40219121316972,103.905451936385,1023,,PE1 Cove LRT,300.0,4.0,99,2002.0,HDB Flat
24618768,North Gaia,https://www.propertyguru.com.sg/listing/for-sale-north-gaia-24618768,1178000.0,3,2,1202.04,45 YISHUN CLOSE NORTH GAIA SINGAPORE 769294,YISHUN CLOSE,NORTH GAIA,769294,1.43531639018077,103.845473584711,980,,,,,99,,Executive Condominium
24785626,325A Sumang Walk,https://www.propertyguru.com.sg/listing/hdb-for-sale-325a-sumang-walk-24785626,708888.0,3,2,708.18,325A SUMANG WALK PUNGGOL BAYVIEW SINGAPORE 821325,SUMANG WALK,PUNGGOL BAYVIEW,821325,1.41359660400066,103.898121318524,1001,,PW5 Nibong LRT,310.0,4.0,99,,HDB Flat
24636721,Highline Residences,https://www.propertyguru.com.sg/listing/for-sale-highline-residences-24636721,2260000.0,3,2,2500.0,11 KIM TIAN ROAD HIGHLINE RESIDENCES SINGAPORE 168594,KIM TIAN ROAD,HIGHLINE RESIDENCES,168594,1.28416577731538,103.829816710958,904,,EW17 Tiong Bahru MRT,410.0,5.0,99,2018.0,Condominium
24841305,BARTLEY RISE ESTATE,https://www.propertyguru.com.sg/listing/for-sale-bartley-rise-estate-24841305,5700000.0,5,5,3433.73,17A EDEN GROVE BARTLEY RISE ESTATE SINGAPORE 539073,EDEN GROVE,BARTLEY RISE ESTATE,539073,1.34402482753369,103.871267635723,4919,1660.0,,,,Freehold,,Terraced House
24639164,The LakeGarden Residences,https://www.propertyguru.com.sg/listing/for-sale-the-lakegarden-residences-24639164,1480000.0,2,2,2021.86,80 YUAN CHING ROAD SINGAPORE 619613,YUAN CHING ROAD,,619613,1.33578824239071,103.725593746553,732,,EW26 Lakeside MRT,980.0,13.0,99,,Condominium
24411427,Sceneca Residence,https://www.propertyguru.com.sg/listing/for-sale-sceneca-residence-24411427,2980000.0,4,3,1963.11,TANAH MERAH KECHIL LINK,TANAH MERAH KECHIL LINK,,,1.32820429821077,103.945275834429,1518,,CG Tanah Merah MRT,130.0,2.0,99,,Condominium
24718777,315A Punggol Way,https://www.propertyguru.com.sg/listing/hdb-for-sale-315a-punggol-way-24718777,750000.0,3,2,616.78,315A PUNGGOL WAY WATERWAY CASCADIA SINGAPORE 821315,PUNGGOL WAY,WATERWAY CASCADIA,821315,1.40831677374217,103.897052983922,1216,,PW6 Sumang LRT,160.0,2.0,99,2016.0,HDB Flat
24298420,Cape Royale,https://www.propertyguru.com.sg/listing/for-sale-cape-royale-24298420,5744000.0,4,3,2270.36,,,,,,,2530,,,,,99,2013.0,Condominium
24634495,The Sail @ Marina Bay,https://www.propertyguru.com.sg/listing/for-sale-the-sail-marina-bay-24634495,1350000.0,1,1,1991.15,,,,,,,678,,DT17 Downtown MRT,200.0,3.0,99,2008.0,Condominium
24812216,351D Anchorvale Road,https://www.propertyguru.com.sg/listing/hdb-for-sale-351d-anchorvale-road-24812216,620000.0,3,2,626.26,351D ANCHORVALE ROAD ANCHORVALE FIELDS SINGAPORE 544351,ANCHORVALE ROAD,ANCHORVALE FIELDS,544351,1.39368506050731,103.886407477755,990,,SW7 Tongkang LRT,490.0,7.0,99,,HDB Flat
24479746,Seletar Hills Estate,https://www.propertyguru.com.sg/listing/for-sale-seletar-hills-estate-24479746,4500000.0,6,5,1216.22,JALAN LAKUM,JALAN LAKUM,,,1.38532157594492,103.872149996382,3000,3700.0,SW5 Fernvale LRT,830.0,11.0,999,,Semi-Detached House
24597758,95C Henderson Road,https://www.propertyguru.com.sg/listing/hdb-for-sale-95c-henderson-road-24597758,1390000.0,3,2,1143.09,95C HENDERSON ROAD CITY VUE @HENDERSON SINGAPORE 153095,HENDERSON ROAD,CITY VUE @HENDERSON,153095,1.28740640570626,103.822053233106,1216,,EW17 Tiong Bahru MRT,580.0,8.0,99,2018.0,HDB Flat
24823640,220 Ang Mo Kio Avenue 1,https://www.propertyguru.com.sg/listing/hdb-for-sale-220-ang-mo-kio-avenue-1-24823640,399000.0,2,2,553.4,220 ANG MO KIO AVENUE 1 ANG MO KIO GROVE SINGAPORE 560220,ANG MO KIO AVENUE 1,ANG MO KIO GROVE,560220,1.36558833593063,103.840518883254,721,,CR12 Teck Ghee MRT,330.0,4.0,99,1976.0,HDB Flat
24756993,990A Jurong West Street 93,https://www.propertyguru.com.sg/listing/hdb-for-sale-990a-jurong-west-street-93-24756993,350000.0,1,1,580.43,990A JURONG WEST STREET 93 SINGAPORE 641990,JURONG WEST STREET 93,,641990,1.33525517762138,103.69508343694,603,,EW28 Pioneer MRT,350.0,5.0,99,2001.0,HDB Flat
24817887,Bedok Ria,https://www.propertyguru.com.sg/listing/for-sale-bedok-ria-24817887,4280000.0,5,4,2411.27,,,,,,,4000,1775.0,EW4 Tanah Merah MRT,670.0,9.0,Freehold,1993.0,Terraced House
24361597,Altez,https://www.propertyguru.com.sg/listing/for-sale-altez-24361597,2000000.0,1,1,2322.88,16 ENGGOR STREET ALTEZ SINGAPORE 079717,ENGGOR STREET,ALTEZ,079717,1.27461794103822,103.844319553688,861,,CC32 Prince Edward Road MRT,280.0,4.0,99,2014.0,Condominium
24597629,Wallich Residence,https://www.propertyguru.com.sg/listing/for-sale-wallich-residence-24597629,6000000.0,3,3,4569.69,,,,,,,1313,,EW15 Tanjong Pagar MRT,170.0,2.0,99,2018.0,Condominium
24841375,D'Casita,https://www.propertyguru.com.sg/listing/for-sale-d-casita-24841375,800000.0,1,1,1518.03,38 LORONG MARZUKI D' CASITA SINGAPORE 417104,LORONG MARZUKI,D' CASITA,417104,1.32189602855264,103.909352749897,527,,EW6 Kembangan MRT,470.0,6.0,Freehold,2011.0,Condominium
24795125,The Aston,https://www.propertyguru.com.sg/listing/for-sale-the-aston-24795125,1275000.0,1,1,1973.68,2 KAY POH ROAD THE ASTON SINGAPORE 248973,KAY POH ROAD,THE ASTON,248973,1.29593645811863,103.829849815157,646,,TE15 Great World MRT,430.0,6.0,Freehold,2002.0,Condominium
24841373,The Montage,https://www.propertyguru.com.sg/listing/for-sale-the-montage-24841373,1000000.0,2,2,1522.07,50 LORONG M TELOK KURAU THE MONTAGE SINGAPORE 425342,LORONG M TELOK KURAU,THE MONTAGE,425342,1.31064500070004,103.912268901718,657,,TE27 Marine Terrace MRT,550.0,7.0,Freehold,2010.0,Condominium
24794330,742 Tampines Street 72,https://www.propertyguru.com.sg/listing/hdb-for-sale-742-tampines-street-72-24794330,850000.0,4,2,647.37,742 TAMPINES STREET 72 TAMPINES GREEN VALE SINGAPORE 520742,TAMPINES STREET 72,TAMPINES GREEN VALE,520742,1.35958874830961,103.933361011699,1313,,,,,99,1996.0,HDB Flat
24723130,622B Punggol Central,https://www.propertyguru.com.sg/listing/hdb-for-sale-622b-punggol-central-24723130,365000.0,1,1,737.37,622B PUNGGOL CENTRAL PUNGGOL SPECTRA SINGAPORE 822622,PUNGGOL CENTRAL,PUNGGOL SPECTRA,822622,1.40034369782027,103.91054120733,495,,PE6 Oasis LRT,320.0,4.0,99,2012.0,HDB Flat
24673919,Casa Merah,https://www.propertyguru.com.sg/listing/for-sale-casa-merah-24673919,2650000.0,4,4,1206.74,60 TANAH MERAH KECHIL AVENUE CASA MERAH SINGAPORE 465529,TANAH MERAH KECHIL AVENUE,CASA MERAH,465529,1.32929399429308,103.945778330917,2196,,CG Tanah Merah MRT,280.0,4.0,99,2009.0,Condominium
23655899,Harbour View Gardens,https://www.propertyguru.com.sg/listing/for-sale-harbour-view-gardens-23655899,1349999.0,2,2,1991.15,221 PASIR PANJANG ROAD HARBOUR VIEW GARDENS SINGAPORE 118582,PASIR PANJANG ROAD,HARBOUR VIEW GARDENS,118582,1.27892037252,103.785351854599,678,,CC25 Haw Par Villa MRT,600.0,8.0,Freehold,2021.0,Apartment
24841369,D'Casita,https://www.propertyguru.com.sg/listing/for-sale-d-casita-24841369,800000.0,1,1,1518.03,38 LORONG MARZUKI D' CASITA SINGAPORE 417104,LORONG MARZUKI,D' CASITA,417104,1.32189602855264,103.909352749897,527,,EW6 Kembangan MRT,470.0,6.0,Freehold,2011.0,Condominium
23969634,Burgundy Hill,https://www.propertyguru.com.sg/listing/for-sale-burgundy-hill-23969634,2999000.0,5,4,1267.54,BURGUNDY DRIVE,BURGUNDY DRIVE,,,1.33889164764533,103.761725563519,3200,2366.0,,,,99,1999.0,Semi-Detached House
24511503,V on Shenton,https://www.propertyguru.com.sg/listing/for-sale-v-on-shenton-24511503,1300000.0,1,1,2685.95,5A SHENTON WAY V ON SHENTON SINGAPORE 068814,SHENTON WAY,V ON SHENTON,068814,1.27708340707631,103.849181343548,484,,TE19 Shenton Way MRT,180.0,2.0,99,2017.0,Condominium
24648550,Affinity At Serangoon,https://www.propertyguru.com.sg/listing/for-sale-affinity-at-serangoon-24648550,1310000.0,2,2,1789.62,32 SERANGOON NORTH AVENUE 1 AFFINITY AT SERANGOON SINGAPORE 554304,SERANGOON NORTH AVENUE 1,AFFINITY AT SERANGOON,554304,1.36597024605313,103.874441963922,732,,CR9 Serangoon North MRT,590.0,8.0,99,,Condominium
24568847,Frankel Estate,https://www.propertyguru.com.sg/listing/for-sale-frankel-estate-24568847,9680000.0,6,7,1282.12,,,,,,,3225,7550.0,TE28 Siglap MRT,810.0,11.0,Freehold,2024.0,Semi-Detached House
24559327,The Giardino by Da Vinci Land / Surin Lane,https://www.propertyguru.com.sg/listing/for-sale-the-giardino-by-da-vinci-land-surin-lane-24559327,8380000.0,7,8,1174.99,,,,,,,3940,7132.0,NE13 Kovan MRT,80.0,1.0,Freehold,2024.0,Semi-Detached House
24816561,123 Hougang Avenue 1,https://www.propertyguru.com.sg/listing/hdb-for-sale-123-hougang-avenue-1-24816561,380000.0,2,2,527.05,,,,,,,721,,NE13 Kovan MRT,760.0,10.0,99,1981.0,HDB Flat
24679632,Sherwood Towers,https://www.propertyguru.com.sg/listing/for-sale-sherwood-towers-24679632,1800000.0,4,3,1178.01,,,,,,,1528,,DT5 Beauty World MRT,410.0,5.0,99,1980.0,Apartment
24648070,Liberte,https://www.propertyguru.com.sg/listing/for-sale-liberte-24648070,1910000.0,2,1,2570.66,5 SARKIES ROAD LIBERTÉ SINGAPORE 258125,SARKIES ROAD,LIBERTÉ,258125,1.31382261497412,103.836659394213,743,,NS21 Newton MRT,160.0,2.0,Freehold,2016.0,Condominium
24841359,463 Jurong West Street 41,https://www.propertyguru.com.sg/listing/hdb-for-sale-463-jurong-west-street-41-24841359,505000.0,3,2,499.01,,,,,,,1012,,EW26 Lakeside MRT,730.0,10.0,99,1983.0,HDB Flat
24765023,Ava Towers,https://www.propertyguru.com.sg/listing/for-sale-ava-towers-24765023,1988000.0,3,2,1551.91,10 AVA ROAD AVA TOWERS SINGAPORE 329949,AVA ROAD,AVA TOWERS,329949,1.32222530186955,103.851774865079,1281,,NS20 Novena MRT,960.0,13.0,Freehold,1993.0,Condominium
24430846,26 Newton,https://www.propertyguru.com.sg/listing/for-sale-26-newton-24430846,1499000.0,2,2,2676.79,26 NEWTON ROAD 26 NEWTON SINGAPORE 307957,NEWTON ROAD,26 NEWTON,307957,1.3156928164724,103.841615456446,560,,NS21 Newton MRT,450.0,6.0,Freehold,2016.0,Condominium
24722235,452A Bukit Batok West Avenue 6,https://www.propertyguru.com.sg/listing/hdb-for-sale-452a-bukit-batok-west-avenue-6-24722235,650000.0,3,2,649.35,452A BUKIT BATOK WEST AVENUE 6 WEST TERRA @ BUKIT BATOK SINGAPORE 651452,BUKIT BATOK WEST AVENUE 6,WEST TERRA @ BUKIT BATOK,651452,1.35265343215969,103.742573096086,1001,,JE2 Tengah Park MRT,600.0,8.0,99,2018.0,HDB Flat
24772535,325A Sumang Walk,https://www.propertyguru.com.sg/listing/hdb-for-sale-325a-sumang-walk-24772535,900000.0,3,2,721.15,325A SUMANG WALK PUNGGOL BAYVIEW SINGAPORE 821325,SUMANG WALK,PUNGGOL BAYVIEW,821325,1.41359660400066,103.898121318524,1248,,PW5 Nibong LRT,310.0,4.0,99,,HDB Flat
23992243,RV Altitude,https://www.propertyguru.com.sg/listing/for-sale-rv-altitude-23992243,1560000.0,1,1,3537.41,344 RIVER VALLEY ROAD RV ALTITUDE SINGAPORE 238385,RIVER VALLEY ROAD,RV ALTITUDE,238385,1.29653566001892,103.83517945905,441,,TE15 Great World MRT,260.0,3.0,Freehold,2022.0,Condominium
24775684,Lincoln Suites,https://www.propertyguru.com.sg/listing/for-sale-lincoln-suites-24775684,1300000.0,,,2742.62,3 KHIANG GUAN AVENUE LINCOLN SUITES SINGAPORE 308381,KHIANG GUAN AVENUE,LINCOLN SUITES,308381,1.31710864002609,103.842743087159,474,,NS20 Novena MRT,340.0,5.0,Freehold,2014.0,Condominium
24052511,Riverfront Residences,https://www.propertyguru.com.sg/listing/for-sale-riverfront-residences-24052511,800000.0,1,1,1547.39,47 HOUGANG AVENUE 7 RIVERFRONT RESIDENCES SINGAPORE 533816,HOUGANG AVENUE 7,RIVERFRONT RESIDENCES,533816,1.37140362442133,103.899644607373,517,,NE14 Hougang MRT,820.0,11.0,99,,Condominium
24317786,The Hillier,https://www.propertyguru.com.sg/listing/for-sale-the-hillier-24317786,1300000.0,2,2,1547.62,2 HILLVIEW RISE HILLHAVEN SINGAPORE 667978,HILLVIEW RISE,HILLHAVEN,667978,1.36393203094063,103.764583569188,840,,DT3 Hillview MRT,340.0,5.0,99,2016.0,Condominium
24652676,The Poiz Residences,https://www.propertyguru.com.sg/listing/for-sale-the-poiz-residences-24652676,1150000.0,1,1,2137.55,12 MEYAPPA CHETTIAR ROAD THE POIZ RESIDENCES SINGAPORE 358474,MEYAPPA CHETTIAR ROAD,THE POIZ RESIDENCES,358474,1.33154468020698,103.866996465418,538,,NE10 Potong Pasir MRT,100.0,1.0,99,2018.0,Condominium
24792826,Oasis @ Elias,https://www.propertyguru.com.sg/listing/for-sale-oasis-elias-24792826,1200000.0,2,2,1224.49,68 ELIAS ROAD OASIS @ ELIAS SINGAPORE 519942,ELIAS ROAD,OASIS @ ELIAS,519942,1.37722899730585,103.942090374434,980,,CP2 Elias MRT,690.0,9.0,99,2012.0,Condominium
24654674,Race Course Road Shophouse,https://www.propertyguru.com.sg/listing/for-sale-race-course-road-shophouse-24654674,5555555.0,6,3,3631.08,,,,,,,4300,1530.0,NE8 Farrer Park MRT,520.0,7.0,Freehold,,Shophouse
24283277,Amber Park,https://www.propertyguru.com.sg/listing/for-sale-amber-park-24283277,1900000.0,2,1,2802.36,18 AMBER GARDENS AMBER PARK SINGAPORE 439980,AMBER GARDENS,AMBER PARK,439980,1.30037788649789,103.899209385261,678,,,,,Freehold,,Condominium
24083381,295 Lorong Chuan,https://www.propertyguru.com.sg/listing/for-sale-295-lorong-chuan-24083381,6700000.0,5,5,1240.74,295 LORONG CHUAN SINGAPORE 556780,LORONG CHUAN,,556780,1.3587276483047,103.868088645082,5400,,CC14 Lorong Chuan MRT,880.0,12.0,Freehold,,Apartment
24839691,210 Boon Lay Place,https://www.propertyguru.com.sg/listing/hdb-for-sale-210-boon-lay-place-24839691,350000.0,3,2,439.15,,,,,,,797,,JS6 Jurong West MRT,430.0,6.0,99,1977.0,HDB Flat
24082977,The Jardin Residences,https://www.propertyguru.com.sg/listing/for-sale-the-jardin-residences-24082977,5700000.0,5,5,3128.43,,,,,,,5290,1822.0,CC14 Lorong Chuan MRT,880.0,12.0,Freehold,2025.0,Corner Terrace
24810407,For Discerning Owner - Brand New Detached Ready To Move In Novena D11,https://www.propertyguru.com.sg/listing/for-sale-for-discerning-owner-brand-new-detached-ready-to-move-in-novena-d11-24810407,18180000.0,6,6,3305.45,,,,,,,10815,5500.0,NS20 Novena MRT,260.0,3.0,Freehold,2023.0,Detached House
24702845,805 Tampines Avenue 4,https://www.propertyguru.com.sg/listing/hdb-for-sale-805-tampines-avenue-4-24702845,590000.0,3,2,602.04,805 TAMPINES AVENUE 4 TAMPINES POLYVIEW SINGAPORE 520805,TAMPINES AVENUE 4,TAMPINES POLYVIEW,520805,1.34611545769579,103.937408478235,980,,DT31 Tampines West MRT,140.0,2.0,99,1983.0,HDB Flat
24840514,210 Boon Lay Place,https://www.propertyguru.com.sg/listing/hdb-for-sale-210-boon-lay-place-24840514,350000.0,3,2,439.15,,,,,,,797,,JS6 Jurong West MRT,430.0,6.0,99,1977.0,HDB Flat
24744608,690 Hougang Street 61,https://www.propertyguru.com.sg/listing/hdb-for-sale-690-hougang-street-61-24744608,680000.0,3,2,522.27,690 HOUGANG STREET 61 HOUGANG SPRING SINGAPORE 530690,HOUGANG STREET 61,HOUGANG SPRING,530690,1.3769320572703,103.885697042104,1302,,,,,99,1986.0,HDB Flat
24644122,122A Sengkang East Way,https://www.propertyguru.com.sg/listing/hdb-for-sale-122a-sengkang-east-way-24644122,598000.0,3,2,505.07,,,,,,,1184,,SE3 Bakau LRT,160.0,2.0,99,1999.0,HDB Flat
24671435,420 Bedok North Street 1,https://www.propertyguru.com.sg/listing/hdb-for-sale-420-bedok-north-street-1-24671435,402000.0,2,2,549.18,420 BEDOK NORTH STREET 1 GARDEN HILL SINGAPORE 460420,BEDOK NORTH STREET 1,GARDEN HILL,460420,1.32774467875638,103.928874390405,732,,EW5 Bedok MRT,450.0,6.0,99,1979.0,HDB Flat
24841360,10Q Braddell Hill,https://www.propertyguru.com.sg/listing/for-sale-10q-braddell-hill-24841360,1800000.0,3,3,1154.59,,,,,,,1559,,CC17 Caldecott MRT,430.0,6.0,,,Condominium
24656567,Ceylon Residence,https://www.propertyguru.com.sg/listing/for-sale-ceylon-residence-24656567,2380000.0,3,3,1957.24,107 CEYLON ROAD CEYLON RESIDENCE SINGAPORE 429690,CEYLON ROAD,CEYLON RESIDENCE,429690,1.30899729089026,103.899835000107,1216,,TE26 Marine Parade MRT,930.0,12.0,Freehold,2012.0,Apartment
24744260,465 Segar Road,https://www.propertyguru.com.sg/listing/hdb-for-sale-465-segar-road-24744260,528000.0,3,2,516.63,465 SEGAR ROAD SEGAR GARDENS SINGAPORE 670465,SEGAR ROAD,SEGAR GARDENS,670465,1.38722762877204,103.772790109806,1022,,BP11 Segar LRT,350.0,5.0,99,2000.0,HDB Flat
24841344,East View Garden,https://www.propertyguru.com.sg/listing/for-sale-east-view-garden-24841344,8500000.0,6,4,2083.33,739 UPPER CHANGI ROAD EAST EAST VIEW GARDEN SINGAPORE 486865,UPPER CHANGI ROAD EAST,EAST VIEW GARDEN,486865,1.34519424654906,103.9621731227,9500,4080.0,DT34 Upper Changi MRT,400.0,5.0,,,Semi-Detached House
24841343,Bedok Residences,https://www.propertyguru.com.sg/listing/for-sale-bedok-residences-24841343,1190000.0,1,1,2301.74,26 BEDOK NORTH DRIVE BEDOK RESIDENCES SINGAPORE 465499,BEDOK NORTH DRIVE,BEDOK RESIDENCES,465499,1.32443944546798,103.929515760461,517,,EW5 Bedok MRT,250.0,3.0,99,2015.0,Condominium
24797451,Avenue South Residence,https://www.propertyguru.com.sg/listing/for-sale-avenue-south-residence-24797451,1180000.0,1,1,2383.84,1 SILAT AVENUE AVENUE SOUTH RESIDENCE SINGAPORE 168872,SILAT AVENUE,AVENUE SOUTH RESIDENCE,168872,1.27639011927215,103.830271330171,495,,CC30 Keppel MRT,780.0,10.0,99,2022.0,Condominium
24598308,The Sterling,https://www.propertyguru.com.sg/listing/for-sale-the-sterling-24598308,3088000.0,3,3,1815.4,1001 BUKIT TIMAH ROAD THE STERLING SINGAPORE 596288,BUKIT TIMAH ROAD,THE STERLING,596288,1.33575596517088,103.782110387097,1701,,DT6 King Albert Park MRT,140.0,2.0,Freehold,2001.0,Condominium
24075445,"Brand new terrace with Lift, 7 bedrooms all ensuite, Living/dining hall with high ceiling",https://www.propertyguru.com.sg/listing/for-sale-brand-new-terrace-with-lift-7-bedrooms-all-ensuite-living-dining-hall-with-high-ceiling-24075445,6680000.0,6,6,3122.95,,,,,,,7604,2139.0,NE13 Kovan MRT,340.0,5.0,Freehold,,Terraced House
19514299,Archipelago,https://www.propertyguru.com.sg/listing/for-sale-archipelago-19514299,1280000.0,2,2,1544.03,,,,,,,829,,DT29 Bedok North MRT,410.0,5.0,99,2015.0,Condominium
24777322,The Sterling,https://www.propertyguru.com.sg/listing/for-sale-the-sterling-24777322,3088000.0,3,3,1815.4,1003 BUKIT TIMAH ROAD THE STERLING SINGAPORE 596289,BUKIT TIMAH ROAD,THE STERLING,596289,1.33521989433288,103.7818413386,1701,,DT6 King Albert Park MRT,140.0,2.0,Freehold,2001.0,Condominium
24516162,East Coast road,https://www.propertyguru.com.sg/listing/for-sale-east-coast-road-24516162,3950000.0,3,2,3029.14,,,,,,,1938,1304.0,,,,Freehold,,Conservation House
24764939,783C Woodlands Rise,https://www.propertyguru.com.sg/listing/hdb-for-sale-783c-woodlands-rise-24764939,580000.0,3,2,579.42,783C WOODLANDS RISE WOODLANDS PASTURE I SINGAPORE 733783,WOODLANDS RISE,WOODLANDS PASTURE I,733783,1.44660763241222,103.803605046297,1001,,NS10 Admiralty MRT,780.0,10.0,99,2017.0,HDB Flat
24781544,Kopar At Newton,https://www.propertyguru.com.sg/listing/for-sale-kopar-at-newton-24781544,1870000.0,2,2,2714.08,8 MAKEWAY AVENUE KOPAR AT NEWTON SINGAPORE 228607,MAKEWAY AVENUE,KOPAR AT NEWTON,228607,1.31273110891936,103.840805628022,689,,,,,99,,Condominium
24809778,602C Punggol Central,https://www.propertyguru.com.sg/listing/hdb-for-sale-602c-punggol-central-24809778,638000.0,3,2,630.43,602C PUNGGOL CENTRAL PUNGGOL VISTA SINGAPORE 823602,PUNGGOL CENTRAL,PUNGGOL VISTA,823602,1.40271329864642,103.907246242924,1012,,PE7 Damai LRT,320.0,4.0,99,2010.0,HDB Flat
22972049,Leedon Green,https://www.propertyguru.com.sg/listing/for-sale-leedon-green-22972049,4783000.0,3,2,3527.29,32 LEEDON HEIGHTS LEEDON GREEN SINGAPORE 266075,LEEDON HEIGHTS,LEEDON GREEN,266075,1.31194123539368,103.803261293524,1356,,CC20 Farrer Road MRT,610.0,8.0,Freehold,,Condominium
24841327,215 Jurong East Street 21,https://www.propertyguru.com.sg/listing/hdb-for-sale-215-jurong-east-street-21-24841327,350000.0,2,2,437.5,215 JURONG EAST STREET 21 SINGAPORE 600215,JURONG EAST STREET 21,,600215,1.33993327217519,103.738514477739,800,,JE4 Toh Guan MRT,470.0,6.0,99,1984.0,HDB Flat
24824002,Mackenzie 88,https://www.propertyguru.com.sg/listing/for-sale-mackenzie-88-24824002,1550000.0,2,2,1823.53,88 MACKENZIE ROAD MACKENZIE 88 SINGAPORE 228697,MACKENZIE ROAD,MACKENZIE 88,228697,1.30647244500245,103.847682828845,850,,NE7 Little India MRT,200.0,3.0,Freehold,2010.0,Apartment
24841322,The Glades,https://www.propertyguru.com.sg/listing/for-sale-the-glades-24841322,849000.0,1,1,1878.32,12 BEDOK RISE THE GLADES SINGAPORE 465407,BEDOK RISE,THE GLADES,465407,1.32731725874975,103.948363451956,452,,EW4 Tanah Merah MRT,250.0,3.0,99,2017.0,Condominium
23997470,Espira Suites,https://www.propertyguru.com.sg/listing/for-sale-espira-suites-23997470,1680000.0,2,2,1393.03,99A LORONG H TELOK KURAU ESPIRA SUITES SINGAPORE 426121,LORONG H TELOK KURAU,ESPIRA SUITES,426121,1.31705876623883,103.912857000474,1206,,EW6 Kembangan MRT,440.0,6.0,Freehold,2012.0,Condominium
24841312,354 Hougang Avenue 7,https://www.propertyguru.com.sg/listing/hdb-for-sale-354-hougang-avenue-7-24841312,470888.0,3,2,480.5,354 HOUGANG AVENUE 7 SINGAPORE 530354,HOUGANG AVENUE 7,,530354,1.37240832629388,103.899433277247,980,,NE14 Hougang MRT,750.0,10.0,99,1984.0,HDB Flat
24772928,Citylights,https://www.propertyguru.com.sg/listing/for-sale-citylights-24772928,3000000.0,3,3,2212.39,80 JELLICOE ROAD CITYLIGHTS SINGAPORE 208766,JELLICOE ROAD,CITYLIGHTS,208766,1.30827581228578,103.863117419778,1356,,EW11 Lavender MRT,140.0,2.0,99,2007.0,Condominium
24753478,240 Jurong East Street 21,https://www.propertyguru.com.sg/listing/hdb-for-sale-240-jurong-east-street-21-24753478,589000.0,3,2,452.38,240 JURONG EAST STREET 21 SINGAPORE 600240,JURONG EAST STREET 21,,600240,1.34106751096494,103.741573199896,1302,,JE4 Toh Guan MRT,150.0,2.0,99,1981.0,HDB Flat
23726889,"BEST DEAL!✨ PARK 6-8 CARS! BRAND NEW BUNGALOW✨. 全 新  独 立,顶 级 优 质 洋 房 打 折 出 售. James 83839800",https://www.propertyguru.com.sg/listing/for-sale-best-deal-park-6-8-cars-brand-new-bungalow-%E5%85%A8-%E6%96%B0-%E7%8B%AC-%E7%AB%8B-%E9%A1%B6-%E7%BA%A7-%E4%BC%98-%E8%B4%A8-%E6%B4%8B-%E6%88%BF-%E6%89%93-%E6%8A%98-%E5%87%BA-%E5%94%AE-james-83839800-23726889,15680000.0,5,6,2919.93,,,,,,,11562,5370.0,DT6 King Albert Park MRT,750.0,10.0,999,2023.0,Detached House
24827814,19 Nassim,https://www.propertyguru.com.sg/listing/for-sale-19-nassim-24827814,2674360.0,2,2,3313.95,19 NASSIM HILL 19 NASSIM SINGAPORE 258482,NASSIM HILL,19 NASSIM,258482,1.30656346400868,103.8213284336,807,,TE12 Napier MRT,260.0,3.0,99,,Condominium
24417145,Waterford Residence,https://www.propertyguru.com.sg/listing/for-sale-waterford-residence-24417145,2388888.0,3,2,2264.35,21 KIM YAM ROAD WATERFORD RESIDENCE SINGAPORE 239332,KIM YAM ROAD,WATERFORD RESIDENCE,239332,1.29379977411151,103.839422092697,1055,,DT20 Fort Canning MRT,510.0,7.0,999,2011.0,Condominium
24630325,87 Dawson Road,https://www.propertyguru.com.sg/listing/hdb-for-sale-87-dawson-road-24630325,868000.0,2,2,1240.0,87 DAWSON ROAD SKYVILLE @ DAWSON SINGAPORE 141087,DAWSON ROAD,SKYVILLE @ DAWSON,141087,1.2957304268451,103.809759937443,700,,EW19 Queenstown MRT,470.0,6.0,99,2015.0,HDB Flat
24610483,Papillon,https://www.propertyguru.com.sg/listing/for-sale-papillon-24610483,1500000.0,2,2,1602.56,8 JALAN RAMA RAMA PAPILLON SINGAPORE 329089,JALAN RAMA RAMA,PAPILLON,329089,1.3269225590077,103.849241627567,936,,NS19 Toa Payoh MRT,640.0,9.0,Freehold,2004.0,Apartment
24733973,Regentville,https://www.propertyguru.com.sg/listing/for-sale-regentville-24733973,1120000.0,2,2,1142.86,6 HOUGANG STREET 92 REGENT VILLE SINGAPORE 538685,HOUGANG STREET 92,REGENT VILLE,538685,1.37459250181609,103.877986399913,980,,CR9 Serangoon North MRT,570.0,8.0,99,2000.0,Condominium
24750367,234B Sumang Lane,https://www.propertyguru.com.sg/listing/hdb-for-sale-234b-sumang-lane-24750367,750000.0,3,2,616.78,234B SUMANG LANE MATILDA COURT SINGAPORE 822234,SUMANG LANE,MATILDA COURT,822234,1.40168217037576,103.891667378516,1216,,SW2 Farmway LRT,570.0,8.0,99,2017.0,HDB Flat
24829671,The M Condo,https://www.propertyguru.com.sg/listing/for-sale-the-m-condo-24829671,1400000.0,,,3422.98,32 MIDDLE ROAD THE M SINGAPORE 188941,MIDDLE ROAD,THE M,188941,1.2976927366626,103.856048348598,409,,CC3 Esplanade MRT,370.0,5.0,99,,Condominium
24558224,340 Jurong East Avenue 1,https://www.propertyguru.com.sg/listing/hdb-for-sale-340-jurong-east-avenue-1-24558224,800000.0,3,3,489.0,,,,,,,1636,,JE2 Tengah Park MRT,750.0,10.0,99,1983.0,HDB Flat
24306173,Harvey Avenue,https://www.propertyguru.com.sg/listing/for-sale-harvey-avenue-24306173,18800000.0,10,10,1934.36,HARVEY AVENUE,HARVEY AVENUE,,,1.3383359465852,103.954487266167,10350,9719.0,EW3 Simei MRT,400.0,5.0,Freehold,,Detached House
24827775,19 Nassim,https://www.propertyguru.com.sg/listing/for-sale-19-nassim-24827775,3453280.0,2,2,3273.25,19 NASSIM HILL 19 NASSIM SINGAPORE 258482,NASSIM HILL,19 NASSIM,258482,1.30656346400868,103.8213284336,1055,,TE12 Napier MRT,260.0,3.0,99,,Condominium
24827670,19 Nassim,https://www.propertyguru.com.sg/listing/for-sale-19-nassim-24827670,4939050.0,3,3,3502.87,19 NASSIM HILL 19 NASSIM SINGAPORE 258482,NASSIM HILL,19 NASSIM,258482,1.30656346400868,103.8213284336,1410,,TE12 Napier MRT,260.0,3.0,99,,Condominium
24841350,THE WATERGARDENS AT CANBERRA,https://www.propertyguru.com.sg/listing/for-sale-the-watergardens-at-canberra-24841350,1200000.0,2,1,1769.91,37 CANBERRA DRIVE THE WATERGARDENS AT CANBERRA SINGAPORE 769310,CANBERRA DRIVE,THE WATERGARDENS AT CANBERRA,769310,1.44024506503424,103.827848470439,678,,,,,99,,Condominium
24841347,Katong Regency,https://www.propertyguru.com.sg/listing/for-sale-katong-regency-24841347,1200000.0,1,1,2105.26,15 TANJONG KATONG ROAD KATONG REGENCY SINGAPORE 436950,TANJONG KATONG ROAD,KATONG REGENCY,436950,1.31447123781646,103.895033794499,570,,EW8 Paya Lebar MRT,370.0,5.0,Freehold,2015.0,Condominium
24733246,998A Buangkok Crescent,https://www.propertyguru.com.sg/listing/hdb-for-sale-998a-buangkok-crescent-24733246,346888.0,1,1,686.91,998A BUANGKOK CRESCENT BUANGKOK PARKVISTA SINGAPORE 531998,BUANGKOK CRESCENT,BUANGKOK PARKVISTA,531998,1.38375782968293,103.880172193688,505,,SW7 Tongkang LRT,830.0,11.0,99,2015.0,HDB Flat
24841187,Treasure at Tampines,https://www.propertyguru.com.sg/listing/for-sale-treasure-at-tampines-24841187,1800000.0,3,2,1742.5,51 TAMPINES LANE TREASURE AT TAMPINES SINGAPORE 528460,TAMPINES LANE,TREASURE AT TAMPINES,528460,1.34408962929136,103.948084008753,1033,,EW3 Simei MRT,760.0,10.0,99,,Condominium
24680555,"Brand New with Lift, Air-well bring in lights from sky to ground floor, 5 big bedrooms ensuite, 2car",https://www.propertyguru.com.sg/listing/for-sale-brand-new-with-lift-air-well-bring-in-lights-from-sky-to-ground-floor-5-big-bedrooms-ensuite-2car-24680555,5880000.0,6,6,3094.74,,,,,,,5500,1900.0,,,,999,,Terraced House
24773808,327A Sumang Walk,https://www.propertyguru.com.sg/listing/hdb-for-sale-327a-sumang-walk-24773808,348000.0,1,1,874.37,327A SUMANG WALK PUNGGOL VUE SINGAPORE 821327,SUMANG WALK,PUNGGOL VUE,821327,1.41243613191501,103.899133553079,398,,PW5 Nibong LRT,150.0,2.0,99,2018.0,HDB Flat
24775490,787 Yishun Ring Road,https://www.propertyguru.com.sg/listing/hdb-for-sale-787-yishun-ring-road-24775490,680000.0,3,2,522.27,787 YISHUN RING ROAD KHATIB VALE SINGAPORE 760787,YISHUN RING ROAD,KHATIB VALE,760787,1.42103613884206,103.832062559086,1302,,NS14 Khatib MRT,410.0,5.0,99,1987.0,HDB Flat
24691038,Dukes Residences,https://www.propertyguru.com.sg/listing/for-sale-dukes-residences-24691038,4000000.0,3,4,1644.06,,,,,,,2433,,CC19 Botanic Gardens MRT,390.0,5.0,Freehold,2012.0,Condominium
24814873,Parc Life,https://www.propertyguru.com.sg/listing/for-sale-parc-life-24814873,1550000.0,3,2,1398.92,,,,,,,1108,,NS11 Sembawang MRT,740.0,10.0,99,2018.0,Executive Condominium
24790582,The Oceanfront @ Sentosa Cove,https://www.propertyguru.com.sg/listing/for-sale-the-oceanfront-sentosa-cove-24790582,5800000.0,4,5,2072.17,285 OCEAN DRIVE THE OCEANFRONT @ SENTOSA COVE SINGAPORE 098529,OCEAN DRIVE,THE OCEANFRONT @ SENTOSA COVE,098529,1.24374601250784,103.842511120506,2799,,,,,99,2010.0,Condominium
24557230,442C Bukit Batok West Avenue 8,https://www.propertyguru.com.sg/listing/hdb-for-sale-442c-bukit-batok-west-avenue-8-24557230,746888.0,3,2,619.31,442C BUKIT BATOK WEST AVENUE 8 WEST RIDGES @ BUKIT BATOK SINGAPORE 653442,BUKIT BATOK WEST AVENUE 8,WEST RIDGES @ BUKIT BATOK,653442,1.35713364367421,103.737972739621,1206,,JE2 Tengah Park MRT,520.0,7.0,99,2017.0,HDB Flat
24684256,RV Edge,https://www.propertyguru.com.sg/listing/for-sale-rv-edge-24684256,2020000.0,2,2,2084.62,2 SHANGHAI ROAD RV EDGE SINGAPORE 248209,SHANGHAI ROAD,RV EDGE,248209,1.29488382877099,103.828087328414,969,,TE15 Great World MRT,610.0,8.0,Freehold,2015.0,Condominium
22180066,Parc Clematis,https://www.propertyguru.com.sg/listing/for-sale-parc-clematis-22180066,1400000.0,2,1,2031.93,8 JALAN LEMPENG PARC CLEMATIS SINGAPORE 128796,JALAN LEMPENG,PARC CLEMATIS,128796,1.31731932864568,103.759717210983,689,,EW23 Clementi MRT,630.0,8.0,99,,Condominium
24672175,812B Choa Chu Kang Avenue 7,https://www.propertyguru.com.sg/listing/hdb-for-sale-812b-choa-chu-kang-avenue-7-24672175,590000.0,3,2,485.2,812B CHOA CHU KANG AVENUE 7 KEAT HONG COLOURS SINGAPORE 682812,CHOA CHU KANG AVENUE 7,KEAT HONG COLOURS,682812,1.37298072773967,103.746249268178,1216,,BP3 Keat Hong LRT,590.0,8.0,99,2016.0,HDB Flat
24532118,"New & Designed by award winner architect,Tip-top finishes, Air-well, wide frontage park 6cars inside",https://www.propertyguru.com.sg/listing/for-sale-new-designed-by-award-winner-architect-tip-top-finishes-air-well-wide-frontage-park-6cars-inside-24532118,8650000.0,5,6,2109.76,,,,,,,6300,4100.0,TE5 Lentor MRT,450.0,6.0,Freehold,,Semi-Detached House
23876258,Provence Residence,https://www.propertyguru.com.sg/listing/for-sale-provence-residence-23876258,1528000.0,3,3,1463.6,33 CANBERRA CRESCENT PROVENCE RESIDENCE SINGAPORE 756930,CANBERRA CRESCENT,PROVENCE RESIDENCE,756930,1.44872732674995,103.827411801472,1044,,NS12 Canberra MRT,370.0,5.0,99,,Executive Condominium
24592130,387 Tampines Street 32,https://www.propertyguru.com.sg/listing/hdb-for-sale-387-tampines-street-32-24592130,728888.0,4,2,546.39,,,,,,,1334,,DT33 Tampines East MRT,390.0,5.0,99,1993.0,HDB Flat
24694320,Yew Mei Green,https://www.propertyguru.com.sg/listing/for-sale-yew-mei-green-24694320,1680000.0,4,2,1191.49,52 CHOA CHU KANG NORTH 6 YEW MEI GREEN SINGAPORE 689575,CHOA CHU KANG NORTH 6,YEW MEI GREEN,689575,1.39525398517519,103.751311497782,1410,,NS5 Yew Tee MRT,480.0,6.0,99,2000.0,Condominium
24823265,665A Punggol Drive,https://www.propertyguru.com.sg/listing/hdb-for-sale-665a-punggol-drive-24823265,800000.0,3,2,658.44,,,,,,,1215,,PE6 Oasis LRT,100.0,1.0,99,2015.0,HDB Flat
24545500,172 Bedok South Road,https://www.propertyguru.com.sg/listing/hdb-for-sale-172-bedok-south-road-24545500,645000.0,3,2,491.24,,,,,,,1313,,TE30 Bedok South MRT,710.0,9.0,99,1985.0,HDB Flat
24789832,One Balmoral,https://www.propertyguru.com.sg/listing/for-sale-one-balmoral-24789832,2800000.0,2,2,2889.58,1 BALMORAL ROAD ONE BALMORAL SINGAPORE 259784,BALMORAL ROAD,ONE BALMORAL,259784,1.31348794645771,103.829908098471,969,,DT10 Stevens MRT,830.0,11.0,Freehold,2016.0,Condominium
24811233,15 Ghim Moh Road,https://www.propertyguru.com.sg/listing/hdb-for-sale-15-ghim-moh-road-24811233,800000.0,3,2,906.0,,,,,,,883,,EW21 Buona Vista MRT,290.0,4.0,99,1976.0,HDB Flat
23374225,One Duchess,https://www.propertyguru.com.sg/listing/for-sale-one-duchess-23374225,3390000.0,4,3,2385.64,1 DUCHESS ROAD ONE DUCHESS SINGAPORE 268977,DUCHESS ROAD,ONE DUCHESS,268977,1.32483349335708,103.808382077332,1421,,DT8 Tan Kah Kee MRT,100.0,1.0,999,2017.0,Apartment
24310940,26 Newton,https://www.propertyguru.com.sg/listing/for-sale-26-newton-24310940,1250000.0,1,1,2637.13,26 NEWTON ROAD 26 NEWTON SINGAPORE 307957,NEWTON ROAD,26 NEWTON,307957,1.3156928164724,103.841615456446,474,,NS21 Newton MRT,450.0,6.0,Freehold,2016.0,Condominium
24448459,Foresque Residences,https://www.propertyguru.com.sg/listing/for-sale-foresque-residences-24448459,2500000.0,3,2,1366.12,103 PETIR ROAD FORESQUE RESIDENCES SINGAPORE 678273,PETIR ROAD,FORESQUE RESIDENCES,678273,1.36876244877256,103.776359050267,1830,,,,,99,2015.0,Condominium
20497681,Amaryllis Ville,https://www.propertyguru.com.sg/listing/for-sale-amaryllis-ville-20497681,1280000.0,1,1,1948.25,22 NEWTON ROAD AMARYLLIS VILLE SINGAPORE 307990,NEWTON ROAD,AMARYLLIS VILLE,307990,1.31478233515073,103.841958399488,657,,DT11 Newton MRT,350.0,5.0,99,2004.0,Condominium
23983566,Modern 2.5 Storey Corner Terrace at Upper Thomson near Mayflower MRT and CHIJ Saint Nicholas Girls,https://www.propertyguru.com.sg/listing/for-sale-modern-2-5-storey-corner-terrace-at-upper-thomson-near-mayflower-mrt-and-chij-saint-nicholas-girls-23983566,6680000.0,6,8,1946.39,,,,,,,4788,3432.0,TE6 Mayflower MRT,730.0,10.0,Freehold,2016.0,Corner Terrace
24741370,669B Jurong West Street 64,https://www.propertyguru.com.sg/listing/hdb-for-sale-669b-jurong-west-street-64-24741370,710000.0,4,2,507.51,669B JURONG WEST STREET 64 SINGAPORE 642669,JURONG WEST STREET 64,,642669,1.34284965706275,103.702804278151,1399,,JS7 Bahar Junction MRT,320.0,4.0,99,1998.0,HDB Flat
24554413,419 Woodlands Street 41,https://www.propertyguru.com.sg/listing/hdb-for-sale-419-woodlands-street-41-24554413,1000000.0,5,2,519.21,419 WOODLANDS STREET 41 SINGAPORE 730419,WOODLANDS STREET 41,,730419,1.42851420473475,103.774572425077,1926,,NS8 Marsiling MRT,460.0,6.0,99,1995.0,HDB Flat
24106937,Pair of Brand New 3.5 Storey Detached with Pool and Lift,https://www.propertyguru.com.sg/listing/for-sale-pair-of-brand-new-3-5-storey-detached-with-pool-and-lift-24106937,8730000.0,6,7,2003.21,,,,,,,9600,4358.0,SW5 Fernvale LRT,690.0,9.0,999,2024.0,Detached House
24806605,SERANGOON PARK,https://www.propertyguru.com.sg/listing/for-sale-serangoon-park-24806605,10600000.0,6,8,2554.22,9D JALAN RIANG SERANGOON PARK SINGAPORE 359042,JALAN RIANG,SERANGOON PARK,359042,1.34756318697162,103.867910057843,5970,4150.0,,,,Freehold,,Detached House
24380835,Freehold 2 Storey Conservation House,https://www.propertyguru.com.sg/listing/for-sale-freehold-2-storey-conservation-house-24380835,6300000.0,2,3,4297.41,BLAIR ROAD,BLAIR ROAD,,,1.27611326478112,103.836121032328,2400,1466.0,,,,Freehold,,Conservation House
23390245,Wallich Residence,https://www.propertyguru.com.sg/listing/for-sale-wallich-residence-23390245,2218000.0,1,1,3612.38,,,,,,,614,,EW15 Tanjong Pagar MRT,170.0,2.0,99,2018.0,Condominium
24465988,Sengkang Grand Residences,https://www.propertyguru.com.sg/listing/for-sale-sengkang-grand-residences-24465988,1000000.0,1,1,2109.7,82 COMPASSVALE BOW SENGKANG GRAND RESIDENCES SINGAPORE 544571,COMPASSVALE BOW,SENGKANG GRAND RESIDENCES,544571,1.38322958770742,103.892278687665,474,,,,,99,,Condominium
24703110,451B Sengkang West Way,https://www.propertyguru.com.sg/listing/hdb-for-sale-451b-sengkang-west-way-24703110,620009.0,3,2,626.27,,,,,,,990,,SW4 Thanggam LRT,310.0,4.0,99,2013.0,HDB Flat
19596383,East Coast Road,https://www.propertyguru.com.sg/listing/for-sale-east-coast-road-19596383,7500000.0,4,4,1910.34,,,,,,,4000,3926.0,TE27 Marine Terrace MRT,310.0,4.0,Freehold,,Terraced House
24177032,306C Punggol Place,https://www.propertyguru.com.sg/listing/hdb-for-sale-306c-punggol-place-24177032,628888.0,3,2,602.38,306C PUNGGOL PLACE TREELODGE@PUNGGOL SINGAPORE 823306,PUNGGOL PLACE,TREELODGE@PUNGGOL,823306,1.40640385188347,103.905958190135,1044,,PE7 Damai LRT,330.0,4.0,99,2010.0,HDB Flat
24214552,Pinetree Condo,https://www.propertyguru.com.sg/listing/for-sale-pinetree-condo-24214552,2450000.0,3,3,2031.51,28 BALMORAL PARK PINETREE CONDOMINIUM SINGAPORE 259856,BALMORAL PARK,PINETREE CONDOMINIUM,259856,1.31498987777031,103.829293820223,1206,,DT10 Stevens MRT,660.0,9.0,Freehold,1996.0,Condominium
24511631,Opera Estate,https://www.propertyguru.com.sg/listing/for-sale-opera-estate-24511631,3900000.0,3,2,2719.67,JALAN BANGSAWAN,JALAN BANGSAWAN,,,1.32109528182986,103.92360887886,1434,1434.0,EW5 Bedok MRT,590.0,8.0,Freehold,,Terraced House
24075924,Canberra Residences,https://www.propertyguru.com.sg/listing/for-sale-canberra-residences-24075924,1490000.0,3,2,1124.53,501 CANBERRA DRIVE CANBERRA RESIDENCES SINGAPORE 768124,CANBERRA DRIVE,CANBERRA RESIDENCES,768124,1.44447954944853,103.825437324844,1325,,NS12 Canberra MRT,550.0,7.0,99,2015.0,Condominium
24682005,Penrose,https://www.propertyguru.com.sg/listing/for-sale-penrose-24682005,1775400.0,2,2,2200.0,20 SIMS DRIVE PENROSE SINGAPORE 387395,SIMS DRIVE,PENROSE,387395,1.31941278190941,103.8794959606,807,,EW9 Aljunied MRT,420.0,6.0,99,,Condominium
24324799,530 Choa Chu Kang Street 51,https://www.propertyguru.com.sg/listing/hdb-for-sale-530-choa-chu-kang-street-51-24324799,650000.0,3,2,422.35,,,,,,,1539,,NS5 Yew Tee MRT,810.0,11.0,99,1995.0,HDB Flat
24064631,Bedok Park,https://www.propertyguru.com.sg/listing/for-sale-bedok-park-24064631,5800000.0,5,3,1552.88,,,,,,,3200,3735.0,TE30 Bedok South MRT,520.0,7.0,,,Semi-Detached House
24631487,Spottiswoode Suites,https://www.propertyguru.com.sg/listing/for-sale-spottiswoode-suites-24631487,1250000.0,1,1,2765.49,16 SPOTTISWOODE PARK ROAD SPOTTISWOODE SUITES SINGAPORE 088661,SPOTTISWOODE PARK ROAD,SPOTTISWOODE SUITES,088661,1.27603511606189,103.837502046362,452,,CC31 Cantonment MRT,350.0,5.0,Freehold,2017.0,Condominium
24317536,Westpark Regency,https://www.propertyguru.com.sg/listing/for-sale-westpark-regency-24317536,1650000.0,3,2,1583.49,346A PASIR PANJANG ROAD WEST PARK REGENCY SINGAPORE 117665,PASIR PANJANG ROAD,WEST PARK REGENCY,117665,1.29005197836567,103.776629475669,1042,,CC24 Kent Ridge MRT,930.0,12.0,Freehold,1990.0,Condominium
23613997,✨LEEDON Vicinity✨. 顶 级 优 质 洋 房 出 售. 83839800 James Ng. Elevated Plot.,https://www.propertyguru.com.sg/listing/for-sale-leedon-vicinity-%E9%A1%B6-%E7%BA%A7-%E4%BC%98-%E8%B4%A8-%E6%B4%8B-%E6%88%BF-%E5%87%BA-%E5%94%AE-83839800-james-ng-elevated-plot-23613997,50000000.0,4,5,1831.5,,,,,,,5000,27300.0,CC21 Holland Village MRT,520.0,7.0,Freehold,,Good Class Bungalow
24826806,Skies Miltonia,https://www.propertyguru.com.sg/listing/for-sale-skies-miltonia-24826806,719999.0,1,1,1363.63,25 MILTONIA CLOSE SKIES MILTONIA SINGAPORE 768060,MILTONIA CLOSE,SKIES MILTONIA,768060,1.41864951221151,103.848111972742,528,,,,,99,2016.0,Condominium
22528337,Kopar At Newton,https://www.propertyguru.com.sg/listing/for-sale-kopar-at-newton-22528337,1499000.0,1,1,2899.42,4 MAKEWAY AVENUE KOPAR AT NEWTON SINGAPORE 228605,MAKEWAY AVENUE,KOPAR AT NEWTON,228605,1.31242688268348,103.841064338246,517,,NS21 Newton MRT,360.0,5.0,99,,Condominium
24473333,The Continuum,https://www.propertyguru.com.sg/listing/for-sale-the-continuum-24473333,5518000.0,5,5,2712.88,2 THIAM SIEW AVENUE THE CONTINUUM SINGAPORE 436839,THIAM SIEW AVENUE,THE CONTINUUM,436839,1.31099710605752,103.895720193717,2034,,CC8 Dakota MRT,720.0,10.0,Freehold,,Condominium
24751316,655B Jurong West Street 61,https://www.propertyguru.com.sg/listing/hdb-for-sale-655b-jurong-west-street-61-24751316,499000.0,3,2,545.36,655B JURONG WEST STREET 61 SINGAPORE 642655,JURONG WEST STREET 61,,642655,1.33550103973985,103.697513956741,915,,EW28 Pioneer MRT,240.0,3.0,99,2000.0,HDB Flat
24703909,The Continuum,https://www.propertyguru.com.sg/listing/for-sale-the-continuum-24703909,2564000.0,3,,2707.5,,,,,,,947,,CC8 Dakota MRT,720.0,10.0,Freehold,,Condominium
23592180,Corals at Keppel Bay,https://www.propertyguru.com.sg/listing/for-sale-corals-at-keppel-bay-23592180,8976000.0,4,7,2967.27,3 KEPPEL BAY DRIVE CORALS AT KEPPEL BAY SINGAPORE 098013,KEPPEL BAY DRIVE,CORALS AT KEPPEL BAY,098013,1.26449699575304,103.816309933353,3025,,NE1 HarbourFront MRT,580.0,8.0,99,2016.0,Condominium
24473230,The Continuum,https://www.propertyguru.com.sg/listing/for-sale-the-continuum-24473230,1863000.0,2,2,2583.91,6 THIAM SIEW AVENUE THE CONTINUUM SINGAPORE 436844,THIAM SIEW AVENUE,THE CONTINUUM,436844,1.31099710605752,103.895720193717,721,,CC8 Dakota MRT,720.0,10.0,Freehold,,Apartment
23982341,North Gaia,https://www.propertyguru.com.sg/listing/for-sale-north-gaia-23982341,2139000.0,5,5,1342.75,45 YISHUN CLOSE NORTH GAIA SINGAPORE 769294,YISHUN CLOSE,NORTH GAIA,769294,1.43531639018077,103.845473584711,1593,,,,,99,,Executive Condominium
24533954,602 Clementi West Street 1,https://www.propertyguru.com.sg/listing/hdb-for-sale-602-clementi-west-street-1-24533954,399000.0,2,2,553.4,,,,,,,721,,,,,99,1979.0,HDB Flat
24808258,The Continuum,https://www.propertyguru.com.sg/listing/for-sale-the-continuum-24808258,5717000.0,5,,3001.05,2 THIAM SIEW AVENUE THE CONTINUUM SINGAPORE 436839,THIAM SIEW AVENUE,THE CONTINUUM,436839,1.31099710605752,103.895720193717,1905,,CC8 Dakota MRT,720.0,10.0,Freehold,,Condominium
24649104,Dalvey Haus,https://www.propertyguru.com.sg/listing/for-sale-dalvey-haus-24649104,43800000.0,4,4,4577.28,101 DALVEY ROAD DALVEY HAUS SINGAPORE 259514,DALVEY ROAD,DALVEY HAUS,259514,1.31626271415845,103.825189618179,9569,,DT10 Stevens MRT,430.0,6.0,Freehold,,Condominium
24821941,Klimt Cairnhill,https://www.propertyguru.com.sg/listing/for-sale-klimt-cairnhill-24821941,2890000.0,2,2,3486.13,71 CAIRNHILL ROAD KLIMT CAIRNHILL SINGAPORE 229725,CAIRNHILL ROAD,KLIMT CAIRNHILL,229725,1.30893652047307,103.836158801315,829,,NS21 Newton MRT,540.0,7.0,Freehold,,Condominium
24547449,290 Bishan Street 24,https://www.propertyguru.com.sg/listing/hdb-for-sale-290-bishan-street-24-24547449,730000.0,3,2,664.85,290 BISHAN STREET 24 BISHAN HEIGHTS SINGAPORE 570290,BISHAN STREET 24,BISHAN HEIGHTS,570290,1.35613778516576,103.844897654796,1098,,NS17 Bishan MRT,710.0,9.0,99,1998.0,HDB Flat
24841384,452A Bukit Batok West Avenue 6,https://www.propertyguru.com.sg/listing/hdb-for-sale-452a-bukit-batok-west-avenue-6-24841384,830000.0,3,2,670.98,452A BUKIT BATOK WEST AVENUE 6 WEST TERRA @ BUKIT BATOK SINGAPORE 651452,BUKIT BATOK WEST AVENUE 6,WEST TERRA @ BUKIT BATOK,651452,1.35265343215969,103.742573096086,1237,,JE2 Tengah Park MRT,600.0,8.0,99,2018.0,HDB Flat
24841275,802B Keat Hong Close,https://www.propertyguru.com.sg/listing/hdb-for-sale-802b-keat-hong-close-24841275,599000.0,3,2,598.4,802B KEAT HONG CLOSE KEAT HONG CREST SINGAPORE 682802,KEAT HONG CLOSE,KEAT HONG CREST,682802,1.37474137483876,103.742851486532,1001,,JS2 Choa Chu Kang West,650.0,9.0,99,2016.0,HDB Flat
24830780,Casuarina Cove,https://www.propertyguru.com.sg/listing/for-sale-casuarina-cove-24830780,2380000.0,3,3,1713.46,120 TANJONG RHU ROAD CASUARINA COVE SINGAPORE 436904,TANJONG RHU ROAD,CASUARINA COVE,436904,1.29751430565974,103.874514479809,1389,,TE23 Tanjong Rhu MRT,130.0,2.0,99,1996.0,Condominium
24740103,Normanton Park,https://www.propertyguru.com.sg/listing/for-sale-normanton-park-24740103,1383000.0,2,1,2177.95,59 NORMANTON PARK NORMANTON PARK SINGAPORE 117285,NORMANTON PARK,NORMANTON PARK,117285,1.28702848318685,103.791616124392,635,,,,,99,,Condominium
24777657,⭐️⭐️Freehold Inter Terrace. Rebuilt. Macpherson ⭐️⭐️ ☎️ Jim 92227288,https://www.propertyguru.com.sg/listing/for-sale-freehold-inter-terrace-rebuilt-macpherson-jim-92227288-24777657,2350000.0,2,2,,JALAN SETIA,JALAN SETIA,,,1.33337075640176,103.880241083731,885,,DT25 Mattar MRT,800.0,11.0,Freehold,,Terraced House
24819019,445 Sin Ming Avenue,https://www.propertyguru.com.sg/listing/hdb-for-sale-445-sin-ming-avenue-24819019,849990.0,3,2,692.74,445 SIN MING AVENUE SIN MING COURT SINGAPORE 570445,SIN MING AVENUE,SIN MING COURT,570445,1.35871142499038,103.831720136073,1227,,TE7 Bright Hill MRT,350.0,5.0,99,1988.0,HDB Flat
24841385,4 Queen's Road,https://www.propertyguru.com.sg/listing/hdb-for-sale-4-queen-s-road-24841385,499000.0,2,2,635.67,4 QUEEN'S ROAD FARRER GARDENS SINGAPORE 260004,QUEEN'S ROAD,FARRER GARDENS,260004,1.31883225284458,103.808061967625,785,,CC20 Farrer Road MRT,190.0,3.0,99,1973.0,HDB Flat
24780856,Charlton Villas,https://www.propertyguru.com.sg/listing/for-sale-charlton-villas-24780856,4000000.0,5,6,,29B CHARLTON LANE CHARLTON VILLAS SINGAPORE 539663,CHARLTON LANE,CHARLTON VILLAS,539663,1.35655333828367,103.881989119644,3541,,NE13 Kovan MRT,560.0,7.0,Freehold,2011.0,Terraced House
24524249,Eight Riversuites,https://www.propertyguru.com.sg/listing/for-sale-eight-riversuites-24524249,2950000.0,3,,,48 WHAMPOA EAST EIGHT RIVERSUITES SINGAPORE 338540,WHAMPOA EAST,EIGHT RIVERSUITES,338540,1.32138149827462,103.864644840838,2960,,NE9 Boon Keng MRT,340.0,5.0,99,2016.0,Cluster House
24218069,Galistan Avenue,https://www.propertyguru.com.sg/listing/for-sale-galistan-avenue-24218069,10000000.0,5,6,1381.6,,,,,,,5500,7238.0,BP5 Phoenix LRT,150.0,2.0,999,,Detached House
24841308,Parc Clematis,https://www.propertyguru.com.sg/listing/for-sale-parc-clematis-24841308,1420000.0,2,2,2000.0,8F JALAN LEMPENG PARC CLEMATIS SINGAPORE 126740,JALAN LEMPENG,PARC CLEMATIS,126740,1.31687599476889,103.759288539801,710,,EW23 Clementi MRT,630.0,8.0,99,,Condominium
24841316,Kimnan Park,https://www.propertyguru.com.sg/listing/for-sale-kimnan-park-24841316,8400000.0,6,8,2378.26,93 JALAN SELAMAT KIMNAN PARK SINGAPORE 418602,JALAN SELAMAT,KIMNAN PARK,418602,1.32661364784633,103.915037756954,7068,3532.0,EW6 Kembangan MRT,450.0,6.0,Freehold,2002.0,Corner Terrace
24841315,8 TREASURE ISLAND,https://www.propertyguru.com.sg/listing/for-sale-8-treasure-island-24841315,25550000.0,5,6,3049.29,8 TREASURE ISLAND SENTOSA COVE SINGAPORE 098345,TREASURE ISLAND,SENTOSA COVE,098345,1.2486630656825,103.843050705698,9360,8379.0,,,,99,,Detached House
24826337,325A Sumang Walk,https://www.propertyguru.com.sg/listing/hdb-for-sale-325a-sumang-walk-24826337,650000.0,3,2,649.35,325A SUMANG WALK PUNGGOL BAYVIEW SINGAPORE 821325,SUMANG WALK,PUNGGOL BAYVIEW,821325,1.41359660400066,103.898121318524,1001,,PW5 Nibong LRT,310.0,4.0,99,,HDB Flat
23649666,Robinson Suites,https://www.propertyguru.com.sg/listing/for-sale-robinson-suites-23649666,1250000.0,1,1,2582.64,50 ROBINSON ROAD ROBINSON SUITES SINGAPORE 068882,ROBINSON ROAD,ROBINSON SUITES,068882,1.28093474456197,103.849822465734,484,,DT18 Telok Ayer MRT,200.0,3.0,Freehold,2016.0,Condominium
24841304,Treasure at Tampines,https://www.propertyguru.com.sg/listing/for-sale-treasure-at-tampines-24841304,1850000.0,3,2,1790.9,57 TAMPINES LANE TREASURE AT TAMPINES SINGAPORE 528457,TAMPINES LANE,TREASURE AT TAMPINES,528457,1.34425932289795,103.949073592994,1033,,EW3 Simei MRT,760.0,10.0,99,,Condominium
24841314,769 UPPER EAST COAST ROAD,https://www.propertyguru.com.sg/listing/for-sale-769-upper-east-coast-road-24841314,8780000.0,7,8,2384.57,769 UPPER EAST COAST ROAD EAST COAST TERRACE SINGAPORE 466624,UPPER EAST COAST ROAD,EAST COAST TERRACE,466624,1.31912030679797,103.953189377878,7988,3682.0,,,,Freehold,,Semi-Detached House
24841313,Pasir Ris Beach Park,https://www.propertyguru.com.sg/listing/for-sale-pasir-ris-beach-park-24841313,6200000.0,4,5,2130.58,26 PASIR RIS WAY PASIR RIS BEACH PARK SINGAPORE 518542,PASIR RIS WAY,PASIR RIS BEACH PARK,518542,1.38149484160718,103.946153784141,5982,2910.0,CP2 Elias MRT,650.0,9.0,,1976.0,Semi-Detached House
24841311,43 Teban Gardens Road,https://www.propertyguru.com.sg/listing/hdb-for-sale-43-teban-gardens-road-24841311,400000.0,2,2,546.45,,,,,,,732,,JE7 Pandan Reservoir MRT,380.0,5.0,99,1985.0,HDB Flat
24804960,7 Marsiling Drive,https://www.propertyguru.com.sg/listing/hdb-for-sale-7-marsiling-drive-24804960,370000.0,4,2,390.71,7 MARSILING DRIVE MARSILING GARDENS SINGAPORE 730007,MARSILING DRIVE,MARSILING GARDENS,730007,1.44166906487399,103.776733408183,947,,,,,99,1975.0,HDB Flat
24743636,Treasure at Tampines,https://www.propertyguru.com.sg/listing/for-sale-treasure-at-tampines-24743636,1190000.0,2,2,1755.16,25 TAMPINES LANE TREASURE AT TAMPINES SINGAPORE 528473,TAMPINES LANE,TREASURE AT TAMPINES,528473,1.34450356587417,103.947749845756,678,,EW3 Simei MRT,760.0,10.0,99,,Condominium
24798309,290D Bukit Batok East Avenue 3,https://www.propertyguru.com.sg/listing/hdb-for-sale-290d-bukit-batok-east-avenue-3-24798309,698000.0,3,2,536.1,,,,,,,1302,,,,,99,1996.0,HDB Flat
24688348,The Sail @ Marina Bay,https://www.propertyguru.com.sg/listing/for-sale-the-sail-marina-bay-24688348,2538000.0,2,2,2874.29,2 MARINA BOULEVARD THE SAIL @ MARINA BAY SINGAPORE 018987,MARINA BOULEVARD,THE SAIL @ MARINA BAY,018987,1.28076943476846,103.852658562152,883,,DT17 Downtown MRT,200.0,3.0,99,2008.0,Condominium
24782579,362 Clementi Avenue 2,https://www.propertyguru.com.sg/listing/hdb-for-sale-362-clementi-avenue-2-24782579,1280000.0,4,4,729.76,362 CLEMENTI AVENUE 2 SINGAPORE 120362,CLEMENTI AVENUE 2,,120362,1.31271692776983,103.769902553813,1754,,EW23 Clementi MRT,630.0,8.0,99,1977.0,HDB Flat
24841309,DUO Residences,https://www.propertyguru.com.sg/listing/for-sale-duo-residences-24841309,1900000.0,1,1,2567.57,1 FRASER STREET DUO RESIDENCES SINGAPORE 189350,FRASER STREET,DUO RESIDENCES,189350,1.29916295967817,103.857859536947,740,,EW12 Bugis MRT,300.0,4.0,99,2017.0,Condominium
24841272,274D Jurong West Avenue 3,https://www.propertyguru.com.sg/listing/hdb-for-sale-274d-jurong-west-avenue-3-24841272,559000.0,3,2,472.13,,,,,,,1184,,JS6 Jurong West MRT,690.0,9.0,99,2000.0,HDB Flat
