{"results": [{"name": "EUNOIA JUNIOR COLLEGE", "lat": 1.36213757183547, "long": 103.841286169122}, {"name": "YISHUN INNOVA JUNIOR COLLEGE", "lat": 1.42426692572335, "long": 103.83003171149}, {"name": "SAINT ANDREW'S JUNIOR COLLEGE", "lat": 1.33306515740956, "long": 103.863576377056}, {"name": "CATHOLIC JUNIOR COLLEGE", "lat": 1.32455605783219, "long": 103.835028842353}, {"name": "NANYANG JUNIOR COLLEGE", "lat": 1.35028314949236, "long": 103.866498721912}, {"name": "ANGLO-CHINESE JUNIOR COLLEGE", "lat": 1.30304255193392, "long": 103.785358436408}, {"name": "VICTORIA JUNIOR COLLEGE", "lat": 1.30670174177479, "long": 103.919982704149}, {"name": "TAMPINES MERIDIAN JUNIOR COLLEGE", "lat": 1.37633346909682, "long": 103.936990723441}, {"name": "JURONG PIONEER JUNIOR COLLEGE", "lat": 1.38437406410733, "long": 103.75437461519}, {"name": "TEMASEK JUNIOR COLLEGE", "lat": 1.31849283027837, "long": 103.935567309385}, {"name": "NATIONAL JUNIOR COLLEGE", "lat": 1.33029291072172, "long": 103.804110905425}, {"name": "NATIONAL JUNIOR COLLEGE BOARDING SCHOOL", "lat": 1.33192635877989, "long": 103.804633660267}, {"name": "ANDERSON SERANGOON JUNIOR COLLEGE", "lat": 1.37894408046934, "long": 103.845760935132}]}