{"results": [{"name": "Yuhua Senior Activity Centre", "lat": 1.34762352332232, "long": 103.731009086814}, {"name": "THK SAC @ Kaki Bukit", "lat": 1.33369344925001, "long": 103.93039693278}, {"name": "THK SAC @ Boon Lay", "lat": 1.3450767624509, "long": 103.711850429975}, {"name": "PEACE-Connect Senior Activity Centre@5", "lat": 1.30434623485538, "long": 103.864815785476}, {"name": "THK SAC @ Beo Crescent", "lat": 1.28880916599737, "long": 103.826295090766}, {"name": "Silver ACE @ Bukit Merah", "lat": 1.28170700809748, "long": 103.826839535636}, {"name": "Lions Befrienders Senior Activity Centre @ Tampines Blk 499C", "lat": 1.35954026811956, "long": 103.956108843521}, {"name": "Care Corner Senior Activity Centre (WL569)", "lat": 1.43012185434529, "long": 103.78971827871}, {"name": "Fei Yue Senior Activity Centre (Bukit Batok Branch)", "lat": 1.34542846753677, "long": 103.750835855563}, {"name": "COMNET Senior Activity Centre @ 182 Rivervale Crescent", "lat": 1.3904712621232, "long": 103.90921580083}, {"name": "Abdullah Shooker Jewish Welfare Home", "lat": 1.30287739060079, "long": 103.847199120492}, {"name": "Adventist Home For The Elders", "lat": 1.33008102512947, "long": 103.858354604578}, {"name": "AWWA Community Home for Senior Citizens", "lat": 1.37051051539357, "long": 103.844652310114}, {"name": "Bo Tien Home For The Aged", "lat": 1.33131242815589, "long": 103.718900078748}, {"name": "Evergreen Place, Home @Hong San", "lat": 1.37802603791765, "long": 103.745466896683}, {"name": "Geylang East Home For The Aged", "lat": 1.32129673696275, "long": 103.885667975116}, {"name": "Henderson Senior Citizens' Home", "lat": 1.28434759909006, "long": 103.821772688088}, {"name": "Kheng Chiu Loke Tin Kee Home", "lat": 1.35632292569628, "long": 103.946663769483}, {"name": "PERTAPIS Senior Citizens Fellowship Home", "lat": 1.34177310289661, "long": 103.856039797927}, {"name": "SBWS Happy Villa (Females)", "lat": 1.27559619819284, "long": 103.842393171371}, {"name": "Singapore Baptist Convention Golden Age Home", "lat": 1.32036885079082, "long": 103.868340800907}, {"name": "St Andrew's Cathedral Home For The Aged", "lat": 1.31916901883785, "long": 103.769053996153}, {"name": "St John's Home for the Aged", "lat": 1.33306475056709, "long": 103.873606136778}, {"name": "St Vincent Home", "lat": 1.29860886250983, "long": 103.852267049825}, {"name": "Zion Home For The Aged", "lat": 1.32697958360519, "long": 103.928130749709}, {"name": "NTUC Health Cluster Support @ Taman Jurong", "lat": 1.33580353495946, "long": 103.720313663041}, {"name": "NTUC Health Cluster Support @ Bt Merah", "lat": 1.28308470501263, "long": 103.822803689153}, {"name": "THK Cluster Support @ Bedok", "lat": 1.32040513134518, "long": 103.936741206687}, {"name": "THK Cluster Support @ Pipit", "lat": 1.32273477519362, "long": 103.888103198129}, {"name": "THK Cluster Support @ AMK", "lat": 1.37769117397607, "long": 103.842745155365}, {"name": "AMKFSC Cluster Support", "lat": 1.36452028588851, "long": 103.856631950307}, {"name": "Carecorner Cluster Suppport", "lat": 1.33583992843419, "long": 103.851278331382}, {"name": "SACS Cluster Support@Jurong East", "lat": 1.34961238350034, "long": 103.732548014907}, {"name": "THK Senior Group Home @ AMK257", "lat": 1.37017011210457, "long": 103.835782471666}, {"name": "THK Senior Group Home @ Indus", "lat": 1.29107462632884, "long": 103.82869017933}, {"name": "PEACE-Connect Senior Group Home@8", "lat": 1.30458623347398, "long": 103.864004039749}, {"name": "TOUCH Senior Group Home@Geylang Bahru", "lat": 1.32231127406246, "long": 103.869263056862}, {"name": "Lions Befrienders Senior Group Home (Mei Ling)", "lat": 1.29457100972605, "long": 103.803041801673}, {"name": "SACS Senior Group Home @ 373 JE", "lat": 1.34934885042485, "long": 103.732355870198}, {"name": "Fei Yue Senior Group Home @ Hougang", "lat": 1.34912216601474, "long": 103.889093324154}, {"name": "Fei Yue Senior Group Home @ Teck Whye Crescent", "lat": 1.38273704126166, "long": 103.753517098763}, {"name": "Care Corner SGH @ WL180C", "lat": 1.43956071258439, "long": 103.778587811164}, {"name": "THK Senior Group Home @ Pipit Road", "lat": 1.3231953319744, "long": 103.888456812145}, {"name": "Econ Health and Wellness Centre", "lat": 1.34531554289951, "long": 103.853985125672}, {"name": "Thye Hua Kwan Moral Charities Limited", "lat": 1.33818196847316, "long": 103.722602550924}, {"name": "Econ Health and Wellness Centre", "lat": 1.29399775974495, "long": 103.810979212099}, {"name": "Econ Health and Wellness Centre", "lat": 1.4308668740444, "long": 103.78955465955}, {"name": "Econ Health and Wellness Centre", "lat": 1.28994619034672, "long": 103.82767972477}, {"name": "Thye Hua Kwan Moral Charities Limited", "lat": 1.27347684499305, "long": 103.806810313384}, {"name": "Pacific Activity Centres Pte Ltd", "lat": 1.43755265384881, "long": 103.79469821451}, {"name": "Econ Health and Wellness Centre", "lat": 1.39441490001882, "long": 103.74514269735}, {"name": "Econ Health and Wellness Centre", "lat": 1.34523591984252, "long": 103.946197624088}, {"name": "Econ Health and Wellness Centre", "lat": 1.39525630992227, "long": 103.888613358569}, {"name": "Pacific Activity Centres Pte Ltd", "lat": 1.40597703417701, "long": 103.898544063666}, {"name": "Pacific Activity Centres Pte Ltd", "lat": 1.43416878432331, "long": 103.842950449878}, {"name": "Econ Health and Wellness Centre", "lat": 1.34755153219885, "long": 103.755783065645}, {"name": "Pacific Activity Centres Pte Ltd", "lat": 1.43195782941459, "long": 103.845379084179}, {"name": "Pacific Activity Centres Pte Ltd", "lat": 1.40116988932646, "long": 103.899920883663}, {"name": "Pacific Activity Centres Pte Ltd", "lat": 1.35585779975445, "long": 103.933334390468}, {"name": "NTUC Eldercare Co-operative Ltd", "lat": 1.43905615754202, "long": 103.778144913125}, {"name": "Pacific Activity Centres Pte Ltd", "lat": 1.38572931928747, "long": 103.892595442782}, {"name": "Pacific Activity Centres Pte Ltd", "lat": 1.28633685223884, "long": 103.829204767509}, {"name": "Adventist Home for the Elders", "lat": 1.3479361970858, "long": 103.715691148499}, {"name": "Adventist Home for the Elders", "lat": 1.33130492908615, "long": 103.859019241137}, {"name": "Methodist Welfare Services", "lat": 1.39785974175621, "long": 103.881232770847}, {"name": "Presbyterian Community Services", "lat": 1.33813198550905, "long": 103.771986321648}, {"name": "Singapore Anglican Community Services", "lat": 1.42308082538947, "long": 103.846419390193}, {"name": "Singapore Anglican Community Services", "lat": 1.34863855769639, "long": 103.7250867313}, {"name": "Unicare Services Pte Ltd", "lat": 1.37734683929474, "long": 103.73791293845}, {"name": "THK Bedok Radiance Senior Activity Centre", "lat": 1.32110310494367, "long": 103.936900159567}, {"name": "Care Corner Senior Activity Centre (TP5)", "lat": 1.33865954470342, "long": 103.855806481819}, {"name": "Care Corner Senior Activity Centre (TP149)", "lat": 1.33378491584458, "long": 103.843760749805}, {"name": "Care Corner Senior Activity Centre (TP170)", "lat": 1.33131927611165, "long": 103.842668715095}, {"name": "CARElderly Senior Activity Centre", "lat": 1.3291589983207, "long": 103.886010319789}, {"name": "CARElderly Senior Activity Centre (Merpati)", "lat": 1.32773087923968, "long": 103.88436171151}, {"name": "COMNET @ Teck Ghee Senior Activity Centre", "lat": 1.36499918481693, "long": 103.853111649269}, {"name": "Chong Hua Tong Senior Activity Centre", "lat": 1.31484505418382, "long": 103.850118105172}, {"name": "COMNET@Sin Ming Senior Activity Centre", "lat": 1.35580085562832, "long": 103.840545906514}, {"name": "Fei Yue Senior Activity Centre (Holland Close)", "lat": 1.3092193833985, "long": 103.796732390286}, {"name": "Fei Yue SAC (Commonwealth Branch)", "lat": 1.30786245527354, "long": 103.799312255213}, {"name": "Fei Yue Senior Activity Centre (Teck Whye)", "lat": 1.38003500477572, "long": 103.754145544166}, {"name": "Goodlife!", "lat": 1.30488433289128, "long": 103.913940009362}, {"name": "Harmony Activity Centre", "lat": 1.32086526324186, "long": 103.885697366712}, {"name": "Jia Ying Senior Activity Centre", "lat": 1.3637896111051, "long": 103.891813270192}, {"name": "Jia Ying Senior Activity Centre @ 25 (Branch)", "lat": 1.36582641566566, "long": 103.891705976408}, {"name": "Kembangan- Chai Chee Senior Activity Centre", "lat": 1.32524214886898, "long": 103.921811371555}, {"name": "King George\u2019s Ave Senior Activity Centre", "lat": 1.30775413437202, "long": 103.861290812007}, {"name": "Kreta Ayer Senior Activity Centre (Banda)", "lat": 1.28117565219562, "long": 103.84341064369}, {"name": "Kreta Ayer Senior Activity Centre (Jalan Kukoh)", "lat": 1.2873776312353, "long": 103.839407063253}, {"name": "Kreta Ayer Senior Activity Centre (Chin Swee)", "lat": 1.28740301182637, "long": 103.842029781049}, {"name": "Lions Befrienders (Ang Mo Kio 318) Senior Activity Centre", "lat": 1.36556039811101, "long": 103.847648125019}, {"name": "Lions Befrienders (Bendemeer) Senior Activity Centre", "lat": 1.31981683778735, "long": 103.863375517444}, {"name": "Lions Befrienders (Clementi) Senior Activity Centre", "lat": 1.30979102571111, "long": 103.768657662729}, {"name": "Lions Befrienders (Ghim Moh) Senior Activity Centre", "lat": 1.31015054830141, "long": 103.787082425451}, {"name": "Lions Befrienders (Mei Ling) Senior Activity Centre", "lat": 1.29490308127776, "long": 103.803699303944}, {"name": "Lions Befrienders (Tampines) Senior Activity Centre", "lat": 1.3592418345923, "long": 103.951613085044}, {"name": "Moral Senior Activity Centre (Kaki Bukit)", "lat": 1.33054568513738, "long": 103.924246709316}, {"name": "Sarah Senior Activity Centre", "lat": 1.28063240627599, "long": 103.824935476571}, {"name": "Redhill Moral Senior Activity Centre", "lat": 1.28543545960949, "long": 103.818782588709}, {"name": "Silver Ace @ Taman Jurong", "lat": 1.3355807259075, "long": 103.723317930685}, {"name": "Silver Ace@Lengkok Bahru", "lat": 1.28821078252975, "long": 103.814148009027}, {"name": "Silver Ace@Redhill", "lat": 1.28731902765015, "long": 103.817475623896}, {"name": "Silver Ace@Telok Blangah", "lat": 1.27147195985109, "long": 103.822992117881}, {"name": "Silver Ace@Whampoa", "lat": 1.32641027032444, "long": 103.859555304045}, {"name": "Sunlove Senior Activity Centre (Chai Chee)", "lat": 1.32420140555352, "long": 103.924878885161}, {"name": "Sunlove Senior Activity Centre (Marsiling)", "lat": 1.4394080432457, "long": 103.776451922786}, {"name": "Tembusu Senior Activity Centre", "lat": 1.32003399991991, "long": 103.90161603997}, {"name": "THK SAC @ AMK 645", "lat": 1.37928493610313, "long": 103.842232224199}, {"name": "THK SAC @ Toa Payoh 15", "lat": 1.33592183679036, "long": 103.85905848409}, {"name": "THK SAC @ Bukit Merah", "lat": 1.28405666067945, "long": 103.821065065362}, {"name": "THK SAC @ Henderson (Satellite 93)", "lat": 1.28692453688783, "long": 103.820418505138}, {"name": "THK SAC @ MacPherson", "lat": 1.32337965408087, "long": 103.88652133406}, {"name": "THK SAC @ Telok Blangah Crescent", "lat": 1.27866784811224, "long": 103.817526612557}, {"name": "THK SAC @ Toa Payoh 31", "lat": 1.33321835783461, "long": 103.854517221663}, {"name": "THK SAC @ AMK 208", "lat": 1.36544495153491, "long": 103.842715050399}, {"name": "Thong Kheng Senior Activity Centre (Queenstown)", "lat": 1.28713356012894, "long": 103.807000524329}, {"name": "Thong Kheng Senior Activity Centre (Tanglin-Cairnhill)", "lat": 1.28413292434456, "long": 103.82320299938}, {"name": "Wesley Senior Activity Centre", "lat": 1.30621517426212, "long": 103.858221512578}, {"name": "Evergreen Circle SAC", "lat": 1.34981132540992, "long": 103.932607938912}, {"name": "Fei Yue Senior Activity Centre (Bukit Batok)", "lat": 1.34632633282524, "long": 103.743379247365}]}