{"results": [{"name": "PCF Sparkletots Preschool @ Cheng San-Seletar Blk 435 (KN)", "lat": 1.36770367492704, "long": 103.854214320416}, {"name": "PCF Sparkletots Preschool @ Cheng San-Seletar Blk 533 (KN)", "lat": 1.37416922383175, "long": 103.85300192794}, {"name": "PCF Sparkletots Preschool @ Cheng San-Seletar Blk 556 (DS)", "lat": 1.37203235928375, "long": 103.857625376965}, {"name": "PCF Sparkletots Preschool @ Chong Pang Blk 107 (KN)", "lat": 1.43221807457959, "long": 103.827520205691}, {"name": "PCF Sparkletots Preschool @ Chong Pang Blk 122 (KN)", "lat": 1.43499758064097, "long": 103.831124799259}, {"name": "PCF Sparkletots Preschool @ Chua Chu Kang Blk 10 (KN)", "lat": 1.38047054364368, "long": 103.755211079769}, {"name": "PCF Sparkletots Preschool @ Clementi Blk 330 (DS)", "lat": 1.31374469736137, "long": 103.767781829665}, {"name": "PCF Sparkletots Preschool @ Eunos Blk 616 (KN)", "lat": 1.33182712339744, "long": 103.91499105001}, {"name": "PCF Sparkletots Preschool @ Fengshan Blk 126 (DS)", "lat": 1.3281682927413, "long": 103.938917895267}, {"name": "PCF Sparkletots Preschool @ Fernvale Blk 416A (DS)", "lat": 1.39061196174241, "long": 103.879963567349}, {"name": "PCF Sparkletots Preschool @ Geylang Serai Blk 11 (KN)", "lat": 1.32180028460211, "long": 103.904424351981}, {"name": "PCF Sparkletots Preschool @ Henderson-Dawson Blk 124A (KN)", "lat": 1.28488703815263, "long": 103.8227818257}, {"name": "PCF Sparkletots Preschool @ Hong Kah North Blk 319 (KN)", "lat": 1.36139507262983, "long": 103.746516661112}, {"name": "PCF Sparkletots Preschool @ Hong Kah North Blk 338 (KN)", "lat": 1.36353416384199, "long": 103.750672681713}, {"name": "PCF Sparkletots Preschool @ Hong Kah North Blk 446 (DS)", "lat": 1.35017338232674, "long": 103.739086387409}, {"name": "PCF Sparkletots Preschool @ Hougang Blk 328 (DS)", "lat": 1.36874824412797, "long": 103.896534516217}, {"name": "PCF Sparkletots Preschool @ Jalan Kayu Blk 518 (DS)", "lat": 1.37164172621645, "long": 103.874102223007}, {"name": "PCF Sparkletots Preschool @ Jalan Kayu Blk 970 (DS)", "lat": 1.37879978868231, "long": 103.880363807334}, {"name": "PCF Sparkletots Preschool @ Jalan Kayu Blk 987C (DS)", "lat": 1.37939224446677, "long": 103.878283916604}, {"name": "PCF SPARKLETOTS PRESCHOOL @ JALAN KAYU BLK 999 (DS)", "lat": 1.38456386152601, "long": 103.879946273543}, {"name": "PCF Sparkletots Preschool @ Joo Chiat Blk 15 (DS)", "lat": 1.312546112412, "long": 103.907430588907}, {"name": "PCF Sparkletots Preschool @ Jurong Central Blk 490 (KN)", "lat": 1.34958659091958, "long": 103.727240367407}, {"name": "PCF Sparkletots Preschool @ Jurong Spring Blk 465 (KN)", "lat": 1.35012594983807, "long": 103.723209577902}, {"name": "PCF SPARKLETOTS PRESCHOOL @ JURONG SPRING BLK 528 (DS)", "lat": 1.3483196862436, "long": 103.716955473046}, {"name": "PCF Sparkletots Preschool @ Kaki Bukit Blk 519 (KN)", "lat": 1.33087464133036, "long": 103.928059100985}, {"name": "PCF Sparkletots Preschool @ Kaki Bukit Blk 526 (KN)", "lat": 1.33421551578193, "long": 103.929129823959}, {"name": "PCF Sparkletots Preschool @ Kampong Chai Chee Blk 135 (KN)", "lat": 1.32873200878091, "long": 103.936506735481}, {"name": "PCF Sparkletots Preschool @ Kampong Chai Chee Blk 775 (KN)", "lat": 1.33655000875481, "long": 103.93582197693}, {"name": "PCF Sparkletots Preschool @ Kampong Glam Blk 462 (DS)", "lat": 1.30458617712551, "long": 103.860840758836}, {"name": "PCF Sparkletots Preschool @ Keat Hong Blk 295 (DS)", "lat": 1.37816642908623, "long": 103.740967964377}, {"name": "PCF Sparkletots Preschool @ Keat Hong Blk 411 (DS)", "lat": 1.38105979174943, "long": 103.7412601713}, {"name": "PCF Sparkletots Preschool @ Kembangan Chai Chee Blk 116 (DS)", "lat": 1.32278532818172, "long": 103.911863015232}, {"name": "PCF Sparkletots Preschool @ Kembangan Chai Chee Blk 326 (KN)", "lat": 1.32717743248404, "long": 103.903801524218}, {"name": "PCF Sparkletots Preschool @ Kembangan Chai Chee Blk 59 (KN)", "lat": 1.32488916006591, "long": 103.92024673054}, {"name": "PCF SPARKLETOTS PRESCHOOL @ KRETA AYER-KIM SENG BLK 79 (DS)", "lat": 1.29107461638082, "long": 103.828690178431}, {"name": "PCF Sparkletots Preschool @ Kreta Ayer-Kim Seng Blk 8 (DS)", "lat": 1.31298449250122, "long": 103.870430264756}, {"name": "PCF Sparkletots Preschool @ Macpherson Blk 108 (KN)", "lat": 1.31901275469313, "long": 103.885168796429}, {"name": "PCF Sparkletots Preschool @ Macpherson Blk 31 (KN)", "lat": 1.3296823206226, "long": 103.88540800234}, {"name": "PCF Sparkletots Preschool @ Marine Parade Blk 46 (DS)", "lat": 1.30510474291299, "long": 103.912659621658}, {"name": "PCF Sparkletots Preschool @ Marsiling Blk 32 (KN)", "lat": 1.44337609505476, "long": 103.772918125345}, {"name": "PCF Sparkletots Preschool @ Marymount Blk 231 (DS)", "lat": 1.35729122095242, "long": 103.845845691857}, {"name": "PCF Sparkletots Preschool @ Moulmein-Cairnhill Blk 10 (DS)", "lat": 1.31391658403565, "long": 103.852209772221}, {"name": "PCF Sparkletots Preschool @ Mountbatten Blk 51 (KN)", "lat": 1.30810981335455, "long": 103.885731691492}, {"name": "PCF Sparkletots Preschool @ Nanyang Blk 934 (KN)", "lat": 1.34223794158475, "long": 103.688737681877}, {"name": "PCF Sparkletots Preschool @ Nee Soon Central Blk 646 (DS)", "lat": 1.42211202299165, "long": 103.837491394187}, {"name": "PCF Sparkletots Preschool @ Nee Soon Central Blk 671 (DS)", "lat": 1.41919116256839, "long": 103.841581273115}, {"name": "PCF Sparkletots Preschool @ Nee Soon Central Blk 737 (KN)", "lat": 1.42897509015293, "long": 103.832444561184}, {"name": "PCF Sparkletots Preschool @ Nee Soon East Blk 223 (KN)", "lat": 1.43436726615481, "long": 103.83560269}, {"name": "PCF Sparkletots Preschool @ Nee Soon Link Blk 408 (KN)", "lat": 1.42625359719969, "long": 103.84842751722}, {"name": "PCF Sparkletots Preschool @ Nee Soon South Blk 875 (DS)", "lat": 1.41476320802965, "long": 103.836287026877}, {"name": "PCF Sparkletots Preschool @ Pasir Ris Central Blk 426 (DS)", "lat": 1.36995839383355, "long": 103.955787850586}, {"name": "PCF Sparkletots Preschool @ Pasir Ris East Blk 216 (KN)", "lat": 1.36902276931181, "long": 103.960913199419}, {"name": "PCF Sparkletots Preschool @ Pasir Ris West Blk 517 (KN)", "lat": 1.37468100572044, "long": 103.943850338073}, {"name": "PCF Sparkletots Preschool @ Paya Lebar Blk 125 (KN)", "lat": 1.35240982845812, "long": 103.886491577012}, {"name": "PCF Sparkletots Preschool @ Paya Lebar Blk 23 (KN)", "lat": 1.36486665879922, "long": 103.890727960773}, {"name": "PCF Sparkletots Preschool @ Pioneer Blk 642 (KN)", "lat": 1.34036989237669, "long": 103.69583983146}, {"name": "PCF Sparkletots Preschool @ Pioneer Blk 654B (KN)", "lat": 1.33616114832903, "long": 103.697939901767}, {"name": "PCF Sparkletots Preschool @ Pioneer Blk 662B (KN)", "lat": 1.33701948788655, "long": 103.703388252733}, {"name": "PCF Sparkletots Preschool @ Pioneer Blk 665A (KN)", "lat": 1.34009319102825, "long": 103.703124311416}, {"name": "PCF Sparkletots Preschool @ Potong Pasir Blk 14 (KN)", "lat": 1.33607364321632, "long": 103.879853833031}, {"name": "PCF Sparkletots Preschool @ Potong Pasir Blk 143 (DS)", "lat": 1.33290760445287, "long": 103.866168853054}, {"name": "PCF Sparkletots Preschool @ Punggol Coast Blk 303A (DS)", "lat": 1.40377788424827, "long": 103.905762209088}, {"name": "PCF Sparkletots Preschool @ Punggol Coast Blk 676B (DS)", "lat": 1.40489140406515, "long": 103.910209757484}, {"name": "PCF Sparkletots Preschool @ Punggol Shore Blk 105D (KN)", "lat": 1.39717529961829, "long": 103.905229593297}, {"name": "PCF Sparkletots Preschool @ Punggol Shore Blk 174D (KN)", "lat": 1.39749399509675, "long": 103.909987381971}, {"name": "PCF Sparkletots Preschool @ Punggol Shore Blk 663A (DS)", "lat": 1.40024347462967, "long": 103.917080044177}, {"name": "PCF Sparkletots Preschool @ Punggol West Blk 271A (KN)", "lat": 1.40374539187196, "long": 103.900318869469}, {"name": "PCF Sparkletots Preschool @ Punggol West Blk 308B (DS)", "lat": 1.40776677168872, "long": 103.898878690366}, {"name": "PCF Sparkletots Preschool @ Queenstown Blk 3 (KN)", "lat": 1.28713355018091, "long": 103.807000522532}, {"name": "PCF SPARKLETOTS PRESCHOOL @ RADIN MAS BLK 18 (DS)", "lat": 1.27790984186905, "long": 103.82253585182}, {"name": "PCF Sparkletots Preschool @ Radin Mas Blk 70A (KN)", "lat": 1.28700658590108, "long": 103.816912472814}, {"name": "PCF Sparkletots Preschool @ Sembawang Central Blk 309 (KN)", "lat": 1.44675733629481, "long": 103.821562413468}, {"name": "PCF Sparkletots Preschool @ Sembawang West Blk 730 (KN)", "lat": 1.44250943653375, "long": 103.797703852283}, {"name": "PCF Sparkletots Preschool @ Sembawang West Blk 789 (KN)", "lat": 1.44333483207998, "long": 103.80237840904}, {"name": "PCF Sparkletots Preschool @ Sengkang East Blk 143 (KN)", "lat": 1.39006593370806, "long": 103.905723421775}, {"name": "PCF Sparkletots Preschool @ Sengkang East Blk 187B (KN)", "lat": 1.39429790829821, "long": 103.905847571802}, {"name": "PCF Sparkletots Preschool @ Sengkang North Blk 231 (DS)", "lat": 1.38914379635486, "long": 103.901353499076}, {"name": "PCF Sparkletots Preschool @ Sengkang North Blk 292B (KN)", "lat": 1.39539858786067, "long": 103.898745036855}, {"name": "PCF Sparkletots Preschool @ Sengkang West Blk 330A (DS)", "lat": 1.39662722834563, "long": 103.889865436032}, {"name": "PCF Sparkletots Preschool @ Serangoon Blk 125 (KN)", "lat": 1.36645062466247, "long": 103.872110841071}, {"name": "PCF Sparkletots Preschool @ Serangoon Blk 226 (KN)", "lat": 1.35682204868595, "long": 103.870855823643}, {"name": "PCF Sparkletots Preschool @ Siglap Blk 170 (KN)", "lat": 1.32072009894001, "long": 103.946111071896}, {"name": "PCF Sparkletots Preschool @ Taman Jurong Blk 352 (DS)", "lat": 1.33936578311752, "long": 103.720184389053}, {"name": "PCF Sparkletots Preschool @ Tampines Central Blk 725 (DS)", "lat": 1.3569845022809, "long": 103.935334498647}, {"name": "PCF Sparkletots Preschool @ Tampines Central Blk 856 (KN)", "lat": 1.35344323889156, "long": 103.936557639581}, {"name": "PCF Sparkletots Preschool @ Tampines Central Blk 868A (KN)", "lat": 1.35477615923053, "long": 103.933979621553}, {"name": "PCF Sparkletots Preschool @ Tampines East Blk 261 (KN)", "lat": 1.35430348301925, "long": 103.950965479305}, {"name": "PCF Sparkletots Preschool @ Tampines East Blk 262 (DS)", "lat": 1.35375663739036, "long": 103.950970405822}, {"name": "PCF Sparkletots Preschool @ Tampines North Blk 483 (KN)", "lat": 1.36143339610089, "long": 103.952685913395}, {"name": "PCF Sparkletots Preschool @ Tampines West Blk 140 (DS)", "lat": 1.34755779198494, "long": 103.943814803455}, {"name": "PCF Sparkletots Preschool @ Tampines-Changkat Blk 284 (KN)", "lat": 1.34910383986383, "long": 103.952628182033}, {"name": "PCF Sparkletots Preschool @ Tampines-Changkat Blk 318 (KN)", "lat": 1.35146093936105, "long": 103.956074917564}, {"name": "PCF Sparkletots Preschool @ Tampines-Changkat Blk 358 (KN)", "lat": 1.3544744687452, "long": 103.961004161557}, {"name": "PCF Sparkletots Preschool @ Tanjong Pagar-Tiong Bahru Blk 130 (KN)", "lat": 1.28041254225052, "long": 103.829271249063}, {"name": "PCF Sparkletots Preschool @ Tanjong Pagar-Tiong Bahru Blk 1E (KN)", "lat": 1.27662167527506, "long": 103.841156141356}, {"name": "PCF Sparkletots Preschool @ Teck Ghee Blk 235 (KN)", "lat": 1.36682360253358, "long": 103.836491242618}, {"name": "PCF Sparkletots Preschool @ Teck Ghee Blk 301 (DS)", "lat": 1.36742110670752, "long": 103.845903594016}, {"name": "PCF Sparkletots Preschool @ Teck Ghee Blk 466 (KN)", "lat": 1.36581960528613, "long": 103.857061604498}, {"name": "PCF Sparkletots Preschool @ Telok Blangah Blk 2 (KN)", "lat": 1.30310744987639, "long": 103.782900811104}, {"name": "PCF Sparkletots Preschool @ Telok Blangah Blk 78A (DS)", "lat": 1.27338251281534, "long": 103.808934807455}, {"name": "PCF Sparkletots Preschool @ Toa Payoh Central Blk 157 (KN)", "lat": 1.33220626015223, "long": 103.845452865271}, {"name": "Little Shepherds' Schoolhouse@Blessed Sacrament Church", "lat": 1.29580363679915, "long": 103.798802361393}, {"name": "Little Shepherds' Schoolhouse@Church of St Francis of Assisi (BL)", "lat": 1.3479017381122, "long": 103.710984438404}, {"name": "Little Shepherds' Schoolhouse@Church of St Francis Xavier", "lat": 1.35864949579806, "long": 103.863529970358}, {"name": "Little Shepherds' Schoolhouse@Church of the Holy Family", "lat": 1.30680767028152, "long": 103.906924696743}, {"name": "Little Shepherds' Schoolhouse@Church of the Holy Trinity", "lat": 1.34884144915906, "long": 103.949335266876}, {"name": "Little Shepherds' Schoolhouse@Church of the Nativity", "lat": 1.37415859812668, "long": 103.89768488976}, {"name": "Little Shepherds' Schoolhouse@St Anne\u2019s Church", "lat": 1.39188938660764, "long": 103.901675482455}, {"name": "Little Shepherds\u2019 Schoolhouse@Church of St Francis of Assisi-JW", "lat": 1.35135367421172, "long": 103.716391798561}, {"name": "Little Skittles International Preschool", "lat": 1.29847421984102, "long": 103.889075335163}, {"name": "Little Woods Montessori Preschool", "lat": 1.318880172033, "long": 103.838418626675}, {"name": "LittleSparks Montessori Kindergarten", "lat": 1.31565624480678, "long": 103.9192457393}, {"name": "Living Sanctuary Kindergarten", "lat": 1.35598783571519, "long": 103.891400629514}, {"name": "Lodestar Montessori Preschool Pte. Ltd.", "lat": 1.3606195338974, "long": 103.890411448921}, {"name": "Lumiere Montessori House", "lat": 1.34715334915268, "long": 103.869823852198}, {"name": "Mahad Al-Nasry @ Sengkang kindergarten", "lat": 1.39171000864574, "long": 103.90112110053}, {"name": "Maplebear Gracefields Pte Ltd", "lat": 1.30058937406419, "long": 103.824478746174}, {"name": "Maris Stella Kindergarten", "lat": 1.30885962108237, "long": 103.80830854784}, {"name": "Masterminds Montessori Kindergarten", "lat": 1.3240852932704, "long": 103.796775591581}, {"name": "MFC Kindergarten (Broadrick Road)", "lat": 1.29979210412369, "long": 103.890672262722}, {"name": "MFC Kindergarten (Newton)", "lat": 1.31798740096571, "long": 103.841298120018}, {"name": "Milagros de Montessori School - Queens Close", "lat": 1.29327263801382, "long": 103.799914667228}, {"name": "Modern Montessori Kindergarten", "lat": 1.31141603164269, "long": 103.929290138295}, {"name": "Monte Kidz World (Pasir Ris)", "lat": 1.37860717814264, "long": 103.9419163678}, {"name": "Montessori Children's House Kindergarten", "lat": 1.33216945979755, "long": 103.790714530768}, {"name": "Morning Glory Preschool", "lat": 1.35281998120377, "long": 103.726034875626}, {"name": "Muhammadiyah Kindergarten", "lat": 1.32303429054426, "long": 103.915442440453}, {"name": "Mujahidin Mosque Kindergarten", "lat": 1.29814970833183, "long": 103.800866440185}, {"name": "MY FIRST SKOOL (DS)", "lat": 1.44392118162242, "long": 103.79603161214}, {"name": "Holy Grace Kindergarten", "lat": 1.31408913751188, "long": 103.93948239896}, {"name": "Hope Community Kindergarten (Choa Chu Kang)", "lat": 1.37776771265351, "long": 103.740253371367}, {"name": "Hope Community Kindergarten (Sembawang)", "lat": 1.45475508257236, "long": 103.814545962606}, {"name": "Hope Community Kindergarten (Tampines)", "lat": 1.36140392768634, "long": 103.952153518306}, {"name": "House on the Hill Montessori Pre-School", "lat": 1.2915371399468, "long": 103.771129088639}, {"name": "Ichiban Nurtureland Kindergarten (Choa Chu Kang)", "lat": 1.37729300082056, "long": 103.745756863098}, {"name": "Idealkidz", "lat": 1.44477273561017, "long": 103.812740482752}, {"name": "Iman Kindergarten (CCK)", "lat": 1.3926269192814, "long": 103.741798788286}, {"name": "Iman Kindergarten (Tenagaville)", "lat": 1.33219242402732, "long": 103.907363530901}, {"name": "Iman Kindergarten (Yishun)", "lat": 1.42576336379243, "long": 103.836539122751}, {"name": "Iroha Kindergarten", "lat": 1.30802739309345, "long": 103.880481033646}, {"name": "Jamiyah Kindergarten", "lat": 1.31037917826093, "long": 103.878782315215}, {"name": "Jenius Kindergarten (Hougang)", "lat": 1.37757028719604, "long": 103.883566207276}, {"name": "Jessin Kindergarten", "lat": 1.33628535356382, "long": 103.848428648728}, {"name": "Josiah Montessori Kindergarten", "lat": 1.35436981239791, "long": 103.95990645157}, {"name": "Joyful Jenius Preschool", "lat": 1.37368392065323, "long": 103.871416986034}, {"name": "Jurong Calvary Kindergarten", "lat": 1.33319032715908, "long": 103.723491063579}, {"name": "Kampung Siglap Mosque Kindergarten", "lat": 1.30985531851085, "long": 103.927555072181}, {"name": "Kay Poh Road Baptist Kindergarten", "lat": 1.29661103014609, "long": 103.829094847341}, {"name": "Khalsa Kindergarten", "lat": 1.31429090538594, "long": 103.858317001214}, {"name": "Kim Keat Christian Church Kindergarten", "lat": 1.32441877850457, "long": 103.865899484003}, {"name": "Kizroo Kindergarten", "lat": 1.33899462699318, "long": 103.793133806944}, {"name": "Little Hands Montessori Kindergarten", "lat": 1.30152875524138, "long": 103.829090071464}, {"name": "Little Leader Kindergarten", "lat": 1.43061828858561, "long": 103.828762992395}, {"name": "Little Moppets Preschool @ Tampines Pte Ltd", "lat": 1.35825225017841, "long": 103.958367363018}, {"name": "Little Oaks Montessori Kindergarten", "lat": 1.3197369476801, "long": 103.81184648166}, {"name": "Little Ones Kindergarten", "lat": 1.31396623259279, "long": 103.779997544892}, {"name": "Little Seeds Preshool @ PPHBC", "lat": 1.28035246795484, "long": 103.785736404322}, {"name": "My Montessori Preschool @ Bullion", "lat": 1.39159864463172, "long": 103.836623070687}, {"name": "My Prep School", "lat": 1.3073862538938, "long": 103.925259997195}, {"name": "3House Kindergarten (Tampines)", "lat": 1.34922500248819, "long": 103.931119234309}, {"name": "ACES Montessori Kidz Kindergarten", "lat": 1.3685870294423, "long": 103.959198004761}, {"name": "Adventure Tree Preschool", "lat": 1.29851422417093, "long": 103.894821376758}, {"name": "Agape Montessori House Kindergarten", "lat": 1.37837963785981, "long": 103.832183441332}, {"name": "Al - Amin Preschool (Pasir Ris)", "lat": 1.37276905533651, "long": 103.946510452453}, {"name": "Al - Ansar Mosque Kindergarten", "lat": 1.32698961847406, "long": 103.926353888519}, {"name": "Al - Iman Mosque Kindergarten", "lat": 1.37814088256746, "long": 103.772732871604}, {"name": "Al - Istighfar Mosque Kindergarten", "lat": 1.37099780289622, "long": 103.964110389053}, {"name": "Al - Istiqamah Mosque Kindergarten", "lat": 1.36920170010691, "long": 103.87562664331}, {"name": "Al - Khair Mosque Kindergarten", "lat": 1.38261285145336, "long": 103.749937140946}, {"name": "Al - Mukminin Mosque Kindergarten", "lat": 1.33921643619988, "long": 103.741421886454}, {"name": "Al - Muttaqin Mosque Kindergarten", "lat": 1.37052179738256, "long": 103.84590479448}, {"name": "Al-Amin Preschool", "lat": 1.36300823583218, "long": 103.953547637361}, {"name": "Al-Nasry @ Jurong West Kindergarten", "lat": 1.3472933612616, "long": 103.699193661791}, {"name": "Al-Nasry @ Sengkang South", "lat": 1.37880333068028, "long": 103.890373634981}, {"name": "An - Nur Mosque Kindergarten", "lat": 1.44072762760387, "long": 103.771877537242}, {"name": "Ang Mo Kio Methodist Church Kindergarten", "lat": 1.36711199290138, "long": 103.835333631377}, {"name": "Ar - Raudhah Mosque Kindergarten", "lat": 1.35166029008021, "long": 103.756001923347}, {"name": "Assyakirin Mosque Kindergarten", "lat": 1.33544839679201, "long": 103.719566219994}, {"name": "Banyan Tree Education @ AMK PTE. LTD.", "lat": 1.37792345234586, "long": 103.875389836619}, {"name": "Barker Road Methodist Church Kindergarten", "lat": 1.31918221398828, "long": 103.8344894946}, {"name": "Bedok Methodist Preschool", "lat": 1.32375594182421, "long": 103.95394521227}, {"name": "Bello Bambini Montessori Pte Ltd", "lat": 1.34884335934228, "long": 103.840907484638}, {"name": "Bethany Kindergarten", "lat": 1.34425557500804, "long": 103.881861644979}, {"name": "Bethel Kinderlites", "lat": 1.32176642868488, "long": 103.88667279475}, {"name": "Bethesda (Ang Mo Kio) Kindergarten", "lat": 1.37468314004991, "long": 103.83730702166}, {"name": "Bethesda (Bedok-Tampines) Kindergarten", "lat": 1.33121916051238, "long": 103.934743789896}, {"name": "Bethesda (Bukit Arang) Kindergarten", "lat": 1.34944975482864, "long": 103.867434210227}, {"name": "Bethesda (Depot Walk) Kindergarten", "lat": 1.28188712349473, "long": 103.814161010439}, {"name": "Bethesda (Katong) Kindergarten", "lat": 1.31680130749558, "long": 103.918409415348}, {"name": "Bethesda (Pasir Ris) Kindergarten", "lat": 1.36794698202429, "long": 103.964444243625}, {"name": "Bethesda Chapel Kindergarten", "lat": 1.32064873039784, "long": 103.910032017265}, {"name": "Bibinogs Preschool K.A.", "lat": 1.32313885832492, "long": 103.81067616506}, {"name": "Blue House International School", "lat": 1.33589728716014, "long": 103.795941519395}, {"name": "Brainfit School House Pte. Ltd.", "lat": 1.32710813170856, "long": 103.846374260603}, {"name": "Brainy Bunch International Montessori", "lat": 1.35916574128219, "long": 103.891524302176}, {"name": "BRAINY BUNCH INTERNATIONAL MONTESSORI (SEMBAWANG)", "lat": 1.4373384856088, "long": 103.827551610382}, {"name": "BRAINY BUNCH PASIR RIS PTE. LTD", "lat": 1.36484626595442, "long": 103.964113175833}, {"name": "British Council (Singapore) Pre-school", "lat": 1.35638869589814, "long": 103.940884212615}, {"name": "Bukit Panjang Methodist Church Kindergarten", "lat": 1.36190360024981, "long": 103.767936368397}, {"name": "Callidus Preschool", "lat": 1.35760845055583, "long": 103.845962916789}, {"name": "Calvary Pandan Kindergarten", "lat": 1.32121263356365, "long": 103.745983723854}, {"name": "Camelot at River Valley Pte. Ltd.", "lat": 1.29202896506623, "long": 103.834255979831}, {"name": "Camelot Learning Centre Pte Ltd", "lat": 1.3076025546785, "long": 103.907078185416}, {"name": "Catholic Kindergarten", "lat": 1.36010502069796, "long": 103.881990499657}, {"name": "Cavenur Kindergarten Pte. Ltd.", "lat": 1.36001177535613, "long": 103.933043784538}, {"name": "Cedan Kindergarten", "lat": 1.3995094177884, "long": 103.906371608671}, {"name": "CGM Kindergarten", "lat": 1.37731135809545, "long": 103.746705228016}, {"name": "Chen Li Kindergarten", "lat": 1.309566609679, "long": 103.880381141146}, {"name": "Chengzhu Mandarin Kindergarten", "lat": 1.30535120421258, "long": 103.788347378512}, {"name": "Children's Vineyard Kindergarten", "lat": 1.31233159790085, "long": 103.903418007443}, {"name": "Chinese Kindergarten", "lat": 1.28575140640772, "long": 103.835938249326}, {"name": "Clementi Woods Kindergarten LLP", "lat": 1.30287178230114, "long": 103.765810208111}, {"name": "Coco-Ro learning House", "lat": 1.29819896463944, "long": 103.838024583204}, {"name": "Darul Ghufran Mosque Kindergarten", "lat": 1.35535423409214, "long": 103.939910572597}, {"name": "Darul Makmur Mosque Kindergarten", "lat": 1.43686614084217, "long": 103.834340340387}, {"name": "David & Goliath Preschool", "lat": 1.33648469808136, "long": 103.722120512842}, {"name": "Dayspring Kindergarten", "lat": 1.41494972645653, "long": 103.898820546221}, {"name": "Divinity Kindergarten", "lat": 1.32671017499221, "long": 103.895045995009}, {"name": "D'Learning Sparks Montessori", "lat": 1.32521087760897, "long": 103.913194640393}, {"name": "Dreamkids Kindergarten @ East Gate Pte Ltd", "lat": 1.30984715854568, "long": 103.907760970253}, {"name": "Dynamic World Montessori Preschool", "lat": 1.30816202979531, "long": 103.9093278394}, {"name": "Early Years Montessori", "lat": 1.32578167482033, "long": 103.766715020331}, {"name": "Edelweiss Kindergarten Sembawang Presbyterian Church", "lat": 1.441244338229, "long": 103.825619958856}, {"name": "Elite Learning Kindergarten Pte Ltd", "lat": 1.34435136562996, "long": 103.697497316312}, {"name": "En-Naeem Mosque Kindergarten", "lat": 1.36092931254353, "long": 103.892551076247}, {"name": "Etonhouse International Research Preschool", "lat": 1.30277935295747, "long": 103.888926442678}, {"name": "Evangel Kindergarten", "lat": 1.43949658287091, "long": 103.791761373526}, {"name": "Faith Methodist Preschool", "lat": 1.30261424460036, "long": 103.797294498346}, {"name": "Far Eastern Kindergarten", "lat": 1.31594489461724, "long": 103.837950231413}, {"name": "First Step Montessori House", "lat": 1.42615724781638, "long": 103.827449415493}, {"name": "Foochow Methodist Preschool", "lat": 1.30894456814707, "long": 103.851699016384}, {"name": "Galilee Kindergarten", "lat": 1.32176984141743, "long": 103.746228330603}, {"name": "Gate Junior Preschool", "lat": 1.3224202994198, "long": 103.949903049914}, {"name": "Glory Kindergarten", "lat": 1.33828864435804, "long": 103.775479086493}, {"name": "Good Shepherd Convent Kindergarten", "lat": 1.31121730631033, "long": 103.932553752065}, {"name": "Grace House @ Tanglin", "lat": 1.29430566123725, "long": 103.816385924747}, {"name": "Grace House @ TRBK PTE LTD", "lat": 1.31486728618646, "long": 103.844295028715}, {"name": "Grace House Kindergarten", "lat": 1.36467949708284, "long": 103.747427339514}, {"name": "Hanis Montessori Kindergarten (Choa Chu Kang)", "lat": 1.39038150426611, "long": 103.747115975931}, {"name": "Hanis Montessori Kindergarten (Enterprise One)", "lat": 1.33274847724842, "long": 103.902616367273}, {"name": "Hanis Montessori Kindergarten (Kovan)", "lat": 1.35497686070883, "long": 103.87854794511}, {"name": "Hanis Montessori Kindergarten (Pasir Ris)", "lat": 1.37406385993511, "long": 103.937049592237}, {"name": "Hanis Montessori Kindergarten (Tampines)", "lat": 1.35642450436441, "long": 103.958609334889}, {"name": "Hanis Montessori Kindergarten (Woodlands)", "lat": 1.42728730224268, "long": 103.774859403272}, {"name": "Heartfield Kindergarten", "lat": 1.31705948582064, "long": 103.833893297789}, {"name": "Hebron Christian Preschool", "lat": 1.39447144744345, "long": 103.74405435399}, {"name": "PCF Sparkletots Preschool @ Woodgrove Blk 899B (KN)", "lat": 1.43613334257346, "long": 103.795264286099}, {"name": "PCF Sparkletots Preschool @ Woodlands Blk 652 (KN)", "lat": 1.4378988029552, "long": 103.799778585683}, {"name": "PCF Sparkletots Preschool @ Woodlands Blk 875 (KN)", "lat": 1.44253260272389, "long": 103.789611666493}, {"name": "PCF Sparkletots Preschool @ Yew Tee Blk 608 (DS)", "lat": 1.39846759226667, "long": 103.744645763617}, {"name": "PCF Sparkletots Preschool @ Yew Tee Blk 682 (KN)", "lat": 1.40251052981138, "long": 103.745291163453}, {"name": "PCF Sparkletots Preschool @ Yew Tee Blk 690D (KN)", "lat": 1.40196203141515, "long": 103.751987240645}, {"name": "PCF Sparkletots Preschool @ Yuhua Blk 251 (KN)", "lat": 1.3431658462769, "long": 103.739676495164}, {"name": "PCF Sparkletots Preschool @ Yuhua Blk 317 (KN)", "lat": 1.3465496871593, "long": 103.730965105747}, {"name": "PCF Sparkletots Preschool @ Zhenghua Blk 455A (KN)", "lat": 1.38756735469633, "long": 103.771212196176}, {"name": "PCF Sparkletots Preschool @ Zhenghua Blk 528 (KN)", "lat": 1.3850490792297, "long": 103.765543454608}, {"name": "PCF Sparkletots Preschool @ Zhenghua Blk 620 (KN)", "lat": 1.38585557651557, "long": 103.761737463992}, {"name": "Pearlbank Montessori Kindergarten", "lat": 1.28750745504731, "long": 103.779791668869}, {"name": "Pentecost Methodist Church Kindergarten", "lat": 1.37125662209935, "long": 103.95714981437}, {"name": "Pibos Garden Preschool", "lat": 1.32364384768629, "long": 103.814591501738}, {"name": "Pink Tower Montessori", "lat": 1.30646586299788, "long": 103.905318259837}, {"name": "Primus Schoolhouse Alexandra By Invictus", "lat": 1.28747707518844, "long": 103.805253386065}, {"name": "Primus Schoolhouse Bukit Timah By Invictus", "lat": 1.34517787844111, "long": 103.790537164744}, {"name": "Putra - Putri Kindergarten", "lat": 1.42885252458878, "long": 103.772369187339}, {"name": "Quayside Isle Preparatory School", "lat": 1.2477586231673, "long": 103.84192109147}, {"name": "Queenstown Good Shepherd Kindergarten", "lat": 1.29508500074892, "long": 103.80731736948}, {"name": "Raffles Montessori Kindergarten (Aljunied)", "lat": 1.31522653397246, "long": 103.88144706752}, {"name": "Ramakrishna Mission Sarada Kindergarten", "lat": 1.34372407111213, "long": 103.879498778206}, {"name": "Ripples Montessori Kindergarten", "lat": 1.33354282355609, "long": 103.948154514457}, {"name": "Riverlife Kindergarten", "lat": 1.37836825105585, "long": 103.957785396157}, {"name": "Sengkang Methodist Preschool", "lat": 1.3922202253184, "long": 103.886426502071}, {"name": "Shalom Kindergarten", "lat": 1.37843836112564, "long": 103.958174532449}, {"name": "Singapore Hokkien Huay Kuan Pre-School", "lat": 1.3156366867206, "long": 103.938413823548}, {"name": "SKOOL4KIDZ CENTRE (DS)", "lat": 1.44514888285651, "long": 103.833925662064}, {"name": "Soka Kindergarten", "lat": 1.34463290496078, "long": 103.943349428312}, {"name": "Sri Sathya Sai Kindergarten", "lat": 1.38310156402033, "long": 103.93673258097}, {"name": "St. Hilda's Church Kindergarten", "lat": 1.30780886537826, "long": 103.900785598733}, {"name": "St. James' Church Kindergarten", "lat": 1.31286096637294, "long": 103.796123266478}, {"name": "St. James' Church Kindergarten (Gilstead)", "lat": 1.31669293009592, "long": 103.838323725375}, {"name": "St. James' Church Kindergarten (Harding)", "lat": 1.30444956358397, "long": 103.812222955725}, {"name": "St. Paul's Church Kindergarten", "lat": 1.35857807983784, "long": 103.881854278856}, {"name": "Sunshine Kindergarten (Watten)", "lat": 1.32415657475007, "long": 103.796801116643}, {"name": "The Ascension Kindergarten", "lat": 1.33028062072756, "long": 103.866401830857}, {"name": "The Caterpillar Clubhouse", "lat": 1.35027065067484, "long": 103.926893511234}, {"name": "The Grange International Preschool", "lat": 1.39045609193864, "long": 103.853973530853}, {"name": "The Montessori Playroom Kindergarten", "lat": 1.37107838895267, "long": 103.89410008795}, {"name": "Toa Payoh Methodist Preschool", "lat": 1.33409620597309, "long": 103.846449867758}, {"name": "Totsville Montessori Kindergarten (Bishan)", "lat": 1.35794579896956, "long": 103.845493593958}, {"name": "Totsville Montessori Kindergarten Pte Ltd", "lat": 1.3817859609192, "long": 103.936411754031}, {"name": "TPBC Kindergarten", "lat": 1.35058735735798, "long": 103.880451217871}, {"name": "True Way Presbyterian Kindergarten", "lat": 1.29372737995427, "long": 103.805684881282}, {"name": "Tung Ling Kindergarten", "lat": 1.30451985721567, "long": 103.906370026138}, {"name": "Wee Care Kindergarten", "lat": 1.29741707652828, "long": 103.843201152693}, {"name": "White Lodge Bukit Timah Pte Ltd", "lat": 1.33238991560995, "long": 103.801672371245}, {"name": "White Lodge Kindergarten (East Coast)", "lat": 1.31001206135023, "long": 103.882409414559}, {"name": "White Lodge Kindergarten (Phoenix Park)", "lat": 1.29855564630799, "long": 103.814673178198}, {"name": "White Lodge West Coast Pte Ltd", "lat": 1.28013029246683, "long": 103.786259570334}, {"name": "Workplayz Montessori", "lat": 1.27729327698752, "long": 103.807739874599}, {"name": "Zion Bishan Kindergarten", "lat": 1.34709066317307, "long": 103.854878359659}, {"name": "My Prep School (Montessori) Pte Ltd", "lat": 1.31834306626229, "long": 103.941364023845}, {"name": "NAFA Arts Preschool", "lat": 1.30976053359834, "long": 103.913935302828}, {"name": "Nanyang Children School", "lat": 1.2736347666166, "long": 103.808207365852}, {"name": "Nanyang Kindergarten", "lat": 1.31805747108794, "long": 103.805567260134}, {"name": "Nanyang Kindergarten", "lat": 1.32111548488685, "long": 103.806468060985}, {"name": "New Life Kindergarten", "lat": 1.44503089438486, "long": 103.777376784519}, {"name": "Newton Kindergarten", "lat": 1.3141001527103, "long": 103.840838759034}, {"name": "P&J Montessori Kindergarten Pte Ltd", "lat": 1.3573180638172, "long": 103.8262492865}, {"name": "Paper Scissors Stone Montessori Kindergarten", "lat": 1.3436187694774, "long": 103.96142702251}, {"name": "Paper Scissors Stone Montessori Kindergarten (Bedok Reservoir Branch)", "lat": 1.33663363062984, "long": 103.925744931429}, {"name": "Paya Lebar Methodist Church Covenant Kindergarten", "lat": 1.35266365141096, "long": 103.875635643684}, {"name": "PCF Sparkletots Preschool @ Admiralty Blk 501 (KN)", "lat": 1.43292523050057, "long": 103.792007005269}, {"name": "PCF Sparkletots Preschool @ Admiralty Blk 581 (DS)", "lat": 1.42989029250495, "long": 103.796403908477}, {"name": "PCF Sparkletots Preschool @ Admiralty Blk 687B (DS)", "lat": 1.44188537579835, "long": 103.80716195226}, {"name": "PCF Sparkletots Preschool @ Ang Mo Kio-Hougang Blk 452 (DS)", "lat": 1.3784914423889, "long": 103.896307995728}, {"name": "PCF Sparkletots Preschool @ Ang Mo Kio-Hougang Blk 535 (DS)", "lat": 1.37644173875212, "long": 103.890133776807}, {"name": "PCF Sparkletots Preschool @ Ang Mo Kio-Hougang Blk 632 (DS)", "lat": 1.37056741706023, "long": 103.880591946023}, {"name": "PCF Sparkletots Preschool @ Ayer Rajah Blk 276D (KN)", "lat": 1.35344765989071, "long": 103.704411154849}, {"name": "PCF Sparkletots Preschool @ Ayer Rajah Blk 48 (DS)", "lat": 1.32049772842145, "long": 103.739967674523}, {"name": "PCF Sparkletots Preschool @ Ayer Rajah Blk 750 (KN)", "lat": 1.34793710590411, "long": 103.699191896846}, {"name": "PCF Sparkletots Preschool @ Bedok Blk 30 (DS)", "lat": 1.32352677837467, "long": 103.9364238972}, {"name": "PCF Sparkletots Preschool @ Bedok Reservoir Punggol Blk 414 (DS)", "lat": 1.37490432555167, "long": 103.895995988498}, {"name": "PCF Sparkletots Preschool @ Bedok Reservoir Punggol Blk 475C (DS)", "lat": 1.37521818176541, "long": 103.899995257604}, {"name": "PCF Sparkletots Preschool @ Bedok Reservoir Punggol Blk 713 (DS)", "lat": 1.33631179918593, "long": 103.922392174488}, {"name": "PCF Sparkletots Preschool @ Bishan East-Thomson Blk 197 (KN)", "lat": 1.34909907233261, "long": 103.850673738514}, {"name": "PCF Sparkletots Preschool @ Bishan East-Thomson Blk 309 (KN)", "lat": 1.3509129611605, "long": 103.83758515995}, {"name": "PCF Sparkletots Preschool @ Boon Lay Blk 207 (DS)", "lat": 1.34658609503224, "long": 103.713568354858}, {"name": "PCF Sparkletots Preschool @ Boon Lay Blk 262 (KN)", "lat": 1.34480139424945, "long": 103.707299110086}, {"name": "PCF Sparkletots Preschool @ Boon Lay Blk 631 (KN)", "lat": 1.34305786631261, "long": 103.700135375227}, {"name": "PCF Sparkletots Preschool @ Braddell Heights Blk 417 (DS)", "lat": 1.34993638310019, "long": 103.875055744068}, {"name": "PCF Sparkletots Preschool @ Brickland Blk 801 (DS)", "lat": 1.37524902480591, "long": 103.743449894478}, {"name": "PCF Sparkletots Preschool @ Bukit Batok Blk 148 (KN)", "lat": 1.34927161964366, "long": 103.743590949149}, {"name": "PCF Sparkletots Preschool @ Bukit Batok Blk 180 (KN)", "lat": 1.34555791776478, "long": 103.742841023535}, {"name": "PCF Sparkletots Preschool @ Bukit Batok East Blk 241 (KN)", "lat": 1.35089522190172, "long": 103.754544471049}, {"name": "PCF Sparkletots Preschool @ Bukit Batok East Blk 285C (KN)", "lat": 1.33788839482394, "long": 103.746604061696}, {"name": "PCF Sparkletots Preschool @ Bukit Batok East Blk 289G (KN)", "lat": 1.34504259059526, "long": 103.758784102186}, {"name": "PCF Sparkletots Preschool @ Bukit Gombak Blk 535 (DS)", "lat": 1.35497074807122, "long": 103.750399552477}, {"name": "PCF Sparkletots Preschool @ Bukit Panjang Blk 422 (KN)", "lat": 1.38505147335169, "long": 103.769635356959}, {"name": "PCF Sparkletots Preschool @ Bukit Timah Blk 312B (DS)", "lat": 1.31965595018252, "long": 103.764454610814}, {"name": "PCF Sparkletots Preschool @ Buona Vista Blk 4 (DS)", "lat": 1.30796826387314, "long": 103.795646465964}, {"name": "PCF Sparkletots Preschool @ Buona Vista Blk 54 (DS)", "lat": 1.30164998575649, "long": 103.796796439331}, {"name": "PCF Sparkletots Preschool @ Canberra Blk 330 (DS)", "lat": 1.44680506942242, "long": 103.81781164141}, {"name": "PCF Sparkletots Preschool @ Canberra Blk 487 (KN)", "lat": 1.45545241106283, "long": 103.816118265341}, {"name": "PCF Sparkletots Preschool @ Changi-Simei Blk 119 (KN)", "lat": 1.34375760745107, "long": 103.95189783774}, {"name": "PCF Sparkletots Preschool @ Changi-Simei Blk 131 (KN)", "lat": 1.34550516127234, "long": 103.953954323795}, {"name": "Zulfa Kindergarten", "lat": 1.34300945615067, "long": 103.697479926063}, {"name": "Zulfa Kindergarten @ Choa Chu Kang", "lat": 1.38170882577146, "long": 103.736662616157}, {"name": "Zulfa Kindergarten @ Pasir Ris", "lat": 1.3797933685312, "long": 103.940918762595}, {"name": "Zulfa Kindergarten @ Sembawang Mart PTE LTD", "lat": 1.45384518348657, "long": 103.819543348907}, {"name": "Preschool Learning Academy @Temasek Polytechnic", "lat": 1.34793947802841, "long": 103.928839989349}, {"name": "Pu Hui Kindergarten", "lat": 1.31591354209676, "long": 103.900452327906}, {"name": "Queenstown Lutheran Church Kindergarten", "lat": 1.30620600054435, "long": 103.799132474644}, {"name": "Rainbow Cove Montessori", "lat": 1.29130378240634, "long": 103.80735098559}, {"name": "Saraswathy Darma Muneeswaran Kindergarten", "lat": 1.41642177176593, "long": 103.833559776614}, {"name": "Saraswathy Kindergarten", "lat": 1.33173314647591, "long": 103.858329274753}, {"name": "Seventh-day Adventist Kindergarten", "lat": 1.33557404138971, "long": 103.73811851831}, {"name": "St. Joseph's Church Kindergarten", "lat": 1.3678017328392, "long": 103.768095681712}, {"name": "St. Vincent De Paul Kindergarten", "lat": 1.37353761780806, "long": 103.875090676588}, {"name": "Starland Kindergarten", "lat": 1.32470110613965, "long": 103.923851967398}, {"name": "Summer Montessori", "lat": 1.32696553373981, "long": 103.724646634457}, {"name": "Sunshine Kindergarten (Watten)", "lat": 1.32402561985017, "long": 103.79678658985}, {"name": "The Capstone Kindergarten", "lat": 1.26936977587333, "long": 103.814634076245}, {"name": "The Little House (Montessori) Kindergarten", "lat": 1.33080150556735, "long": 103.767762106429}, {"name": "Tots Club Preschool", "lat": 1.34578288643183, "long": 103.697658654286}, {"name": "Totsville Montessori Preschool", "lat": 1.36445048918861, "long": 103.84946401992}, {"name": "Two By Two Schoolhouse", "lat": 1.31182050214657, "long": 103.91055724291}, {"name": "Wee Care Kindergarten", "lat": 1.30561166302195, "long": 103.82296294546}, {"name": "White Lodge Kindergarten (Upper East Coast)", "lat": 1.36495701081143, "long": 103.97165729174}, {"name": "White Lodge Upper Bukit Timah Pte Ltd", "lat": 1.35993292324799, "long": 103.768482871873}, {"name": "Yio Chu Kang Chapel Kindergarten", "lat": 1.36799818192716, "long": 103.876359608674}, {"name": "Zion Kindergarten", "lat": 1.36733995362926, "long": 103.86215911882}, {"name": "PCF Sparkletots Preschool @ Toa Payoh Central Blk 97 (KN)", "lat": 1.3386255354481, "long": 103.847769288867}, {"name": "PCF Sparkletots Preschool @ Toa Payoh East Blk 45 (DS)", "lat": 1.33586536053977, "long": 103.853751153692}, {"name": "PCF Sparkletots Preschool @ Toa Payoh West-Thomson Blk 131 (DS)", "lat": 1.33796172734574, "long": 103.843250727572}, {"name": "PCF Sparkletots Preschool @ Toa Payoh West-Thomson Blk 205 (DS)", "lat": 1.34220948238466, "long": 103.847727627447}, {"name": "PCF SPARKLETOTS PRESCHOOL @ ULU PANDAN BLK 24 (DS)", "lat": 1.30896726726612, "long": 103.785514310348}, {"name": "PCF Sparkletots Preschool @ West Coast Blk 728 (KN)", "lat": 1.30561272185902, "long": 103.76360266545}, {"name": "PCF Sparkletots Preschool @ Whampoa Blk 106 (DS)", "lat": 1.32102000591403, "long": 103.86099783467}, {"name": "PCF Sparkletots Preschool @ Whampoa Blk 112 (KN)", "lat": 1.3260015314609, "long": 103.85673220864}, {"name": "PCF Sparkletots Preschool @ Whampoa Blk 85 (DS)", "lat": 1.3227891960228, "long": 103.856444479793}, {"name": "PCF Sparkletots Preschool @ Woodgrove Blk 302 (KN)", "lat": 1.43151114459947, "long": 103.774428428987}, {"name": "PCF Sparkletots Preschool @ Woodgrove Blk 364 (KN)", "lat": 1.43407881633294, "long": 103.786743448794}, {"name": "Bubbles Learning House @ Yishun", "lat": 1.43403211157967, "long": 103.838824200687}]}